,Sale Time,"Deposit (in $k,000)",Address_x,City,Zip,Sale Location,AD First Pub,Address_Full,Address_y,city,county,state,formatted_address,latitude,longitude,accuracy,google_place_id,type,postcode,input_string,number_of_results,status,Distance
0,2020-01-08 10:00 AM,$10.7 K,"7302 18TH AVENUE, #104",HYATTSVILLE,20783,"PRINCE GEORGES COURTHOUSE AT FRONT OF THE DUVAL WING OF THE COURTHOUSE COMPLEX 14735 MAIN ST, UPPER MARLBORO, MD 20772",12/23/2019,"7302 18TH AVENUE, #104 HYATTSVILLE",,,,,,,,,,,,"7302 18TH AVENUE, #104 HYATTSVILLE",0,REQUEST_DENIED,
1,2020-01-08 10:00 AM,$5 K,8111 CAREY BRANCH DRIVE,FT WASHINGTON,20744,"PRINCE GEORGES COURTHOUSE AT FRONT OF THE DUVAL WING OF THE COURTHOUSE COMPLEX 14735 MAIN ST, UPPER MARLBORO, MD 20772",12/23/2019,8111 CAREY BRANCH DRIVE FT WASHINGTON,8111 Carey Branch Dr,Fort Washington,Prince George's County,Maryland,"8111 Carey Branch Dr, Fort Washington, MD 20744, USA",38.7774677,-76.9951997,ROOFTOP,ChIJ9xGMkL26t4kR773UxajxhKw,premise,20744,8111 CAREY BRANCH DRIVE FT WASHINGTON,1,OK,9.000583275
2,2020-01-08 10:00 AM,$45.5 K,10704 WESTWOOD DRIVE,CHELTENHAM,20623,"PRINCE GEORGES COURTHOUSE AT FRONT OF THE DUVAL WING OF THE COURTHOUSE COMPLEX 14735 MAIN ST, UPPER MARLBORO, MD 20772",12/23/2019,10704 WESTWOOD DRIVE CHELTENHAM,10704 Westwood Dr,Cheltenham,Prince George's County,Maryland,"10704 Westwood Dr, Cheltenham, MD 20623, USA",38.7420456,-76.8251767,ROOFTOP,ChIJ6e7HPP6Xt4kRE9lp9jmtl3k,premise,20623,10704 WESTWOOD DRIVE CHELTENHAM,1,OK,9.313195936
3,2020-01-08 10:00 AM,$49.7 K,4502 ELMWOOD ROAD,BELTSVILLE,20705,"PRINCE GEORGES COURTHOUSE AT FRONT OF THE DUVAL WING OF THE COURTHOUSE COMPLEX 14735 MAIN ST, UPPER MARLBORO, MD 20772",12/23/2019,4502 ELMWOOD ROAD BELTSVILLE,4502 Elmwood Rd,Beltsville,Prince George's County,Maryland,"4502 Elmwood Rd, Beltsville, MD 20705, USA",39.0457791,-76.917737,ROOFTOP,ChIJd3RrXH3Dt4kRyi8EwSLR-q8,premise,20705,4502 ELMWOOD ROAD BELTSVILLE,1,OK,12.30447984
4,2020-01-08 10:00 AM,$48 K,7205 PURPLE ASH COURT,CLINTON,20735,"PRINCE GEORGES COURTHOUSE AT FRONT OF THE DUVAL WING OF THE COURTHOUSE COMPLEX 14735 MAIN ST, UPPER MARLBORO, MD 20772",12/23/2019,7205 PURPLE ASH COURT CLINTON,7205 Purple Ash Ct,Clinton,Prince George's County,Maryland,"7205 Purple Ash Ct, Clinton, MD 20735, USA",38.7376046,-76.8821624,ROOFTOP,ChIJm7reSS6jt4kR7bLR0Uy0j8w,premise,20735,7205 PURPLE ASH COURT CLINTON,1,OK,9.17751558
5,2020-01-08 10:00 AM,$47.1 K,5843 EAST BONIWOOD TURN,CLINTON,20735,"PRINCE GEORGES COURTHOUSE AT FRONT OF THE DUVAL WING OF THE COURTHOUSE COMPLEX 14735 MAIN ST, UPPER MARLBORO, MD 20772",12/23/2019,5843 EAST BONIWOOD TURN CLINTON,5843 E Boniwood Turn,Clinton,Prince George's County,Maryland,"5843 E Boniwood Turn, Clinton, MD 20735, USA",38.7302826,-76.9090469,ROOFTOP,ChIJj_yL-1yjt4kRzSlbfJvVX-o,premise,20735,5843 EAST BONIWOOD TURN CLINTON,1,OK,9.823821919
6,2020-01-08 10:00 AM,$21.3 K,328 WINSLOW ROAD,OXON HILL,20745,"PRINCE GEORGES COURTHOUSE AT FRONT OF THE DUVAL WING OF THE COURTHOUSE COMPLEX 14735 MAIN ST, UPPER MARLBORO, MD 20772",12/23/2019,328 WINSLOW ROAD OXON HILL,328 Winslow Rd,Oxon Hill,Prince George's County,Maryland,"328 Winslow Rd, Oxon Hill, MD 20745, USA",38.7821504,-77.0027701,ROOFTOP,ChIJ4WHPG5m6t4kReCvRvtdoRsE,premise,20745,328 WINSLOW ROAD OXON HILL,1,OK,9.069979011
7,2020-01-08 11:00 AM,$23K,5930 BELLE GROVE ROAD,BALTIMORE,21225,"ANNE ARUNDEL COURTHOUSE AT 8 CHURCH CIR, ANNAPOLIS, MD 21401",12/23/2019,5930 BELLE GROVE ROAD BALTIMORE,6051 Belle Grove Rd,Baltimore,Anne Arundel County,Maryland,"6051 Belle Grove Rd, Baltimore, MD 21225, USA",39.2156804,-76.6424807,ROOFTOP,ChIJyVASQVMdyIkRpTHeqZgT27E,"establishment,parking,point_of_interest",21225,5930 BELLE GROVE ROAD BALTIMORE,1,OK,26.9985313
8,2020-01-08 11:00 AM,$14K,"11809 OLD COLUMBIA PIKE, UNIT #86",SILVER SPRING,20904,"MONTGOMERY COURTHOUSE AT 50 MARYLAND AVENUE, ROCKVILLE, MD 20850",12/23/2019,"11809 OLD COLUMBIA PIKE, UNIT #86 SILVER SPRING",,,,,,,,,,,,"11809 OLD COLUMBIA PIKE, UNIT #86 SILVER SPRING",0,REQUEST_DENIED,
9,2020-01-08 12:00 PM,$5 K,3902 RIDGEWOOD AVENUE,BALTIMORE,21215,"BALTIMORE CITY COURTHOUSE AT 100 N CALVERT ST, (COURTHOUSE WEST), BALTIMORE, MD 21202",12/23/2019,3902 RIDGEWOOD AVENUE BALTIMORE,4002 Ridgewood Ave,Baltimore,,Maryland,"4002 Ridgewood Ave, Baltimore, MD 21215, USA",39.3369221,-76.6860267,ROOFTOP,ChIJp6ePHwAbyIkRE_aRxIvTf9k,"church,establishment,place_of_worship,point_of_interest",21215,3902 RIDGEWOOD AVENUE BALTIMORE,2,OK,33.83787399
10,2020-01-08 12:00 PM,$14.3K,"1101 SAINT PAUL STREET, UNIT 106",BALTIMORE,21202,"BALTIMORE CITY COURTHOUSE AT 100 N CALVERT ST, (COURTHOUSE WEST), BALTIMORE, MD 21202",12/23/2019,"1101 SAINT PAUL STREET, UNIT 106 BALTIMORE",1101 St Paul St,Baltimore,,Maryland,"1101 St Paul St Ste 107, Baltimore, MD 21202, USA",39.3026341,-76.613873,ROOFTOP,ChIJHa70H6PucEARYAU8_eGpsC4,"establishment,point_of_interest",21202,"1101 SAINT PAUL STREET, UNIT 106 BALTIMORE",1,OK,33.05443075
11,2020-01-08 12:00 PM,$5.3 K,3505 3RD STREET,BALTIMORE,21225,"BALTIMORE CITY COURTHOUSE AT 100 N CALVERT ST, (COURTHOUSE WEST), BALTIMORE, MD 21202",12/23/2019,3505 3RD STREET BALTIMORE,5661 3rd St NE,Washington,,District of Columbia,"5661 3rd St NE, Washington, DC 20011, USA",38.9591353,-77.0027071,ROOFTOP,ChIJ6-oIBdHHt4kRFf1Y3bf0vXY,"establishment,point_of_interest",20011,3505 3RD STREET BALTIMORE,1,OK,9.084556671
12,2020-01-08 12:00 PM,$14.9 K,2809 HEMLOCK AVENUE,BALTIMORE,21214,"BALTIMORE CITY COURTHOUSE AT 100 N CALVERT ST, (COURTHOUSE WEST), BALTIMORE, MD 21202",12/23/2019,2809 HEMLOCK AVENUE BALTIMORE,2809 Hemlock Ave,Baltimore,,Maryland,"2809 Hemlock Ave, Baltimore, MD 21214, USA",39.3604882,-76.5606311,ROOFTOP,ChIJUWIEf_cFyIkRDaeQ72XEegI,premise,21214,2809 HEMLOCK AVENUE BALTIMORE,2,OK,37.89652787
13,2020-01-09 9:45 AM,$6.9K,8701 CRESTHILL COURT,LAUREL,20723,"HOWARD COURTHOUSE AT 8360 COURT AVE, ELLICOTT CITY, MD 21043",12/24/2019,8701 CRESTHILL COURT LAUREL,8701 Cresthill Ct,Laurel,Howard County,Maryland,"8701 Cresthill Ct, Laurel, MD 20723, USA",39.1217309,-76.857676,ROOFTOP,ChIJwUB-1aTdt4kRFpwrL_5jl4Y,street_address,20723,8701 CRESTHILL COURT LAUREL,1,OK,17.40011713
14,2020-01-09 10:00 AM,$14K,3905 CLARK STREET,CAPITOL HEIGHTS,20743,"PRINCE GEORGES COURTHOUSE AT FRONT OF THE DUVAL WING OF THE COURTHOUSE COMPLEX 14735 MAIN ST, UPPER MARLBORO, MD 20772",12/23/2019,3905 CLARK STREET CAPITOL HEIGHTS,3905 Clark St,Capitol Heights,Prince George's County,Maryland,"3905 Clark St, Capitol Heights, MD 20743, USA",38.8675039,-76.938783,ROOFTOP,ChIJJf95USK5t4kRSQlEJPkNhyE,street_address,20743,3905 CLARK STREET CAPITOL HEIGHTS,1,OK,3.274887539
15,2020-01-09 10:00 AM,$20K,"8701 GREENBELT ROAD, UNIT 101",GREENBELT,20770,"PRINCE GEORGES COURTHOUSE AT FRONT OF THE DUVAL WING OF THE COURTHOUSE COMPLEX 14735 MAIN ST, UPPER MARLBORO, MD 20772",12/23/2019,"8701 GREENBELT ROAD, UNIT 101 GREENBELT",8701 Greenbelt Rd,Greenbelt,Prince George's County,Maryland,"8701 Greenbelt Rd #101, Greenbelt, MD 20770, USA",38.9884575,-76.8583494,ROOFTOP,EjAxMDEsIDg3MDEgR3JlZW5iZWx0IFJkLCBHcmVlbmJlbHQsIE1EIDIwNzcwLCBVU0EiHxodChYKFAoSCaMyTS-IwbeJESqvEcvrmIPzEgMxMDE,subpremise,20770,"8701 GREENBELT ROAD, UNIT 101 GREENBELT",1,OK,8.225702879
16,2020-01-09 10:00 AM,$20K,915 NEWINGTON COURT,CAPITAL HEIGHTS,20743,"PRINCE GEORGES COURTHOUSE AT FRONT OF THE DUVAL WING OF THE COURTHOUSE COMPLEX 14735 MAIN ST, UPPER MARLBORO, MD 20772",12/23/2019,915 NEWINGTON COURT CAPITAL HEIGHTS,915 Newington Ct,Capitol Heights,Prince George's County,Maryland,"915 Newington Ct, Capitol Heights, MD 20743, USA",38.87762,-76.909856,ROOFTOP,ChIJCWS53i6_t4kRxcsBRjZtnxk,street_address,20743,915 NEWINGTON COURT CAPITAL HEIGHTS,1,OK,1.783861618
17,2020-01-09 2:00 PM,$16K,3225 32ND AVENUE,TEMPLE HILLS,20748,"PRINCE GEORGES COURTHOUSE AT FRONT OF THE DUVAL WING OF THE COURTHOUSE COMPLEX 14735 MAIN ST, UPPER MARLBORO, MD 20772",12/24/2019,3225 32ND AVENUE TEMPLE HILLS,3225 32nd Ave,Temple Hills,Prince George's County,Maryland,"3225 32nd Ave, Temple Hills, MD 20748, USA",38.84516,-76.952952,ROOFTOP,ChIJGSuGrHq5t4kRFelI_PfNu1E,street_address,20748,3225 32ND AVENUE TEMPLE HILLS,1,OK,4.392469014
18,2020-01-13 10:00 AM,$38.3K,7725 CHATFIELD LANE,ELLICOTT CITY,21043,"HOWARD COURTHOUSE AT 8360 COURT AVE, ELLICOTT CITY, MD 21043",12/27/2019,7725 CHATFIELD LANE ELLICOTT CITY,110 Irving St NW,Washington,,District of Columbia,"110 Irving St NW #1A50B, Washington, DC 20010, USA",38.9291323,-77.0147877,ROOFTOP,ChIJl2mbSgHIt4kRsHRTdDiHojU,"doctor,establishment,health,point_of_interest",20010,7725 CHATFIELD LANE ELLICOTT CITY,1,OK,8.399810048
19,2020-01-13 10:00 AM,$20K,911 HILLTOP ROAD,BALTIMORE,21226,"ANNE ARUNDEL COURTHOUSE AT 8 CHURCH CIR, ANNAPOLIS, MD 21401",12/26/2019,911 HILLTOP ROAD BALTIMORE,911 Hilltop Rd,Riviera Beach,Anne Arundel County,Maryland,"911 Hilltop Rd, Orchard Beach, MD 21226, USA",39.170688,-76.526838,ROOFTOP,ChIJ6_eQHmr-t4kRV7HHO9Q5BkA,street_address,21226,911 HILLTOP ROAD BALTIMORE,2,OK,28.03336588
20,2020-01-13 10:00 AM,$20K,206 CANNON BALL WAY,ODENTON,21113,"ANNE ARUNDEL COURTHOUSE AT 8 CHURCH CIR, ANNAPOLIS, MD 21401",12/26/2019,206 CANNON BALL WAY ODENTON,206 Cannon Ball Way,Odenton,Anne Arundel County,Maryland,"206 Cannon Ball Way, Odenton, MD 21113, USA",39.1085876,-76.708872,ROOFTOP,ChIJe3cgPkfkt4kR1rmj4ldZR18,premise,21113,206 CANNON BALL WAY ODENTON,1,OK,18.79814802
21,2020-01-13 10:00 AM,$20K,2104 JANER DRIVE,PASADENA,21122,"ANNE ARUNDEL COURTHOUSE AT 8 CHURCH CIR, ANNAPOLIS, MD 21401",12/26/2019,2104 JANER DRIVE PASADENA,2104 Janer Dr,Pasadena,Anne Arundel County,Maryland,"2104 Janer Dr, Pasadena, MD 21122, USA",39.130978,-76.434004,ROOFTOP,ChIJudP1cMcBuIkRuk_PcQWMHmc,street_address,21122,2104 JANER DRIVE PASADENA,2,OK,29.87608004
22,2020-01-13 10:00 AM,$20K,2 BODON CT,MILLERSVILLE,21108,"ANNE ARUNDEL COURTHOUSE AT 8 CHURCH CIR, ANNAPOLIS, MD 21401",12/26/2019,2 BODON CT MILLERSVILLE,2 Bodon Ct,Millersville,Anne Arundel County,Maryland,"2 Bodon Ct, Millersville, MD 21108, USA",39.109457,-76.618656,ROOFTOP,ChIJleca-UH7t4kRTQXEdC_EeAM,street_address,21108,2 BODON CT MILLERSVILLE,1,OK,21.60653485
23,2020-01-13 10:30 AM,$20K,3821 FERNDALE AVENUE,BALTIMORE,21207,"BALTIMORE CITY COURTHOUSE AT 100 N CALVERT ST, (COURTHOUSE WEST), BALTIMORE, MD 21202",12/24/2019,3821 FERNDALE AVENUE BALTIMORE,3821 Ferndale Ave,Baltimore,,Maryland,"3821 Ferndale Ave, Baltimore, MD 21207, USA",39.3374645,-76.6974358,ROOFTOP,ChIJ6_vdOK0byIkRXCX6CCreUaM,premise,21207,3821 FERNDALE AVENUE BALTIMORE,2,OK,33.6927097
24,2020-01-13 10:30 AM,$17K,2359 WASHINGTON BLVD,BALTIMORE,21230,"BALTIMORE CITY COURTHOUSE AT 100 N CALVERT ST, (COURTHOUSE WEST), BALTIMORE, MD 21202",12/26/2019,2359 WASHINGTON BLVD BALTIMORE,4400 Jenifer St NW,Washington,,District of Columbia,"4400 Jenifer St NW, Washington, DC 20015, USA",38.958568,-77.0865747,ROOFTOP,ChIJpRmkXZHJt4kRxzKQdaCjJck,"establishment,finance,insurance_agency,point_of_interest,real_estate_agency",20015,2359 WASHINGTON BLVD BALTIMORE,1,OK,12.76034573
25,2020-01-13 11:30 AM,$19K,5563 OAKLAND ROAD,HALETHORPE,21227,"BALTIMORE COURTHOUSE AT 401 BOSLEY AVE (MAIN ENTRANCE FACING PATRIOT PLAZA), TOWSON, MD 21204",12/24/2019,5563 OAKLAND ROAD HALETHORPE,3001 Connecticut Ave NW,Washington,,District of Columbia,"3001 Connecticut Ave NW, Washington, DC 20008, USA",38.9296156,-77.0497844,ROOFTOP,ChIJ3_DHHda3t4kR5BsMSyCsaJ4,"establishment,point_of_interest,tourist_attraction,zoo",20008,5563 OAKLAND ROAD HALETHORPE,1,OK,10.10191407
26,2020-01-13 11:45 AM,$14.1 K,403 LORRAINE STREET,ABERDEEN,21001,"HARFORD COURTHOUSE AT 20 W COURTLAND ST, BEL AIR, MD 21014",12/27/2019,403 LORRAINE STREET ABERDEEN,403 Lorraine St,Aberdeen,Harford County,Maryland,"403 Lorraine St, Aberdeen, MD 21001, USA",39.508399,-76.172761,ROOFTOP,ChIJEwWezYjBx4kRzDRVkjxQOqw,street_address,21001,403 LORRAINE STREET ABERDEEN,2,OK,58.04802491
27,2020-01-13 1:00 P.M,$13K,23707 BRIDGETOWN RD,HENDERSON,21640,"CAROLINE COURTHOUSE AT 109 MARKET ST, DENTON, MD 21629",12/25/2019,23707 BRIDGETOWN RD HENDERSON,23707 Bridgetown Rd,Henderson,Caroline County,Maryland,"23707 Bridgetown Rd, Henderson, MD 21640, USA",39.032936,-75.880028,ROOFTOP,ChIJ7a8u5x56uIkRLu3o8bgGuk4,street_address,21640,23707 BRIDGETOWN RD HENDERSON,2,OK,54.78747301
28,2020-01-13 1:45 PM,$5 K,18 GLENWOOD STREET,EARLEVILLE,21919,"CECIL COURTHOUSE AT 129 E. MAIN ST, ELKTON, MD 21921",12/27/2019,18 GLENWOOD STREET EARLEVILLE,18 Glenwood St,Earleville,Cecil County,Maryland,"18 Glenwood St, Earleville, MD 21919, USA",39.4429754,-75.97322,ROOFTOP,ChIJq6XQHBeWx4kRMJdwFempTyY,street_address,21919,18 GLENWOOD STREET EARLEVILLE,2,OK,62.56973656
29,2020-01-14 10:00 AM,$7.8 K,3526 SPRING ROAD,LAUREL,20724,"ANNE ARUNDEL COURTHOUSE AT 8 CHURCH CIR, ANNAPOLIS, MD 21401",12/26/2019,3526 SPRING ROAD LAUREL,3526 Spring Rd,Laurel,Anne Arundel County,Maryland,"3526 Spring Rd, Laurel, MD 20724, USA",39.1069102,-76.8147678,ROOFTOP,ChIJwY_NBnjnt4kRNzw87N1Dxeo,premise,20724,3526 SPRING ROAD LAUREL,1,OK,16.69108706
30,2020-01-14 10:00 AM,$31.6 K,7767 OLD HOUSE ROAD,PASADENA,21122,"ANNE ARUNDEL COURTHOUSE AT 8 CHURCH CIR, ANNAPOLIS, MD 21401",12/26/2019,7767 OLD HOUSE ROAD PASADENA,7767 Old House Rd,Pasadena,Anne Arundel County,Maryland,"7767 Old House Rd, Pasadena, MD 21122, USA",39.145418,-76.535105,ROOFTOP,ChIJXZx_JZD-t4kR9XZWuBa5u48,street_address,21122,7767 OLD HOUSE ROAD PASADENA,2,OK,26.4584976
31,2020-01-14 10:00 AM,$36.3 K,1508 MARTOCK LANE,HANOVER,21076,"ANNE ARUNDEL COURTHOUSE AT 8 CHURCH CIR, ANNAPOLIS, MD 21401",12/26/2019,1508 MARTOCK LANE HANOVER,1508 Martock Ln,Hanover,Anne Arundel County,Maryland,"1508 Martock Ln, Hanover, MD 21076, USA",39.1628768,-76.7330658,ROOFTOP,ChIJZaNVWt_jt4kRRdgJMZv3lag,street_address,21076,1508 MARTOCK LANE HANOVER,1,OK,21.65510275
32,2020-01-14 10:00 AM,$39.3 K,163 SEVERN WAY,ARNOLD,21012,"ANNE ARUNDEL COURTHOUSE AT 8 CHURCH CIR, ANNAPOLIS, MD 21401",12/26/2019,163 SEVERN WAY ARNOLD,163 Severn Way,Arnold,Anne Arundel County,Maryland,"163 Severn Way, Arnold, MD 21012, USA",39.022697,-76.511444,ROOFTOP,ChIJC9_j_nr3t4kRYkDQTAHIv2s,street_address,21012,163 SEVERN WAY ARNOLD,2,OK,22.33297177
33,2020-01-14 10:00 AM,$36.5 K,1205 BREITWERT AVENUE,ODENTON,21113,"ANNE ARUNDEL COURTHOUSE AT 8 CHURCH CIR, ANNAPOLIS, MD 21401",12/26/2019,1205 BREITWERT AVENUE ODENTON,1205 Breitwert Ave,Odenton,Anne Arundel County,Maryland,"1205 Breitwert Ave, Odenton, MD 21113, USA",39.0844746,-76.6918681,ROOFTOP,ChIJ18yW3ajlt4kReqjVtCT6qR8,premise,21113,1205 BREITWERT AVENUE ODENTON,1,OK,17.85400667
34,2020-01-14 10:00 AM,$27.5K,1024 COMMANDERS WAY NORTH,ANNAPOLIS,21409,"ANNE ARUNDEL COURTHOUSE AT 8 CHURCH CIR, ANNAPOLIS, MD 21401",12/26/2019,1024 COMMANDERS WAY NORTH ANNAPOLIS,1024 Commanders Way N,Annapolis,Anne Arundel County,Maryland,"1024 Commanders Way N, Annapolis, MD 21409, USA",39.0338909,-76.448292,ROOFTOP,ChIJE2t2haUCuIkRfzEnvu-zZl0,street_address,21409,1024 COMMANDERS WAY NORTH ANNAPOLIS,2,OK,25.70531811
35,2020-01-14 11:00 AM,$12.5K,3116 TYNDALE AVENUE,BALTIMORE,21214,"BALTIMORE CITY COURTHOUSE AT 100 N CALVERT ST, (COURTHOUSE WEST), BALTIMORE, MD 21202",12/27/2019,3116 TYNDALE AVENUE BALTIMORE,501 E Pratt St,Baltimore,,Maryland,"501 E Pratt St, Baltimore, MD 21202, USA",39.2853948,-76.6083877,ROOFTOP,ChIJXVZn5GIDyIkRjn58fGGo8Mc,"aquarium,establishment,museum,point_of_interest,tourist_attraction",21202,3116 TYNDALE AVENUE BALTIMORE,1,OK,32.11449585
36,2020-01-14 11:15 AM,$7K,4836 BEAUFORT AVENUE,BALTIMORE,21215,"BALTIMORE CITY COURTHOUSE AT 100 N CALVERT ST, (COURTHOUSE WEST), BALTIMORE, MD 21202",12/27/2019,4836 BEAUFORT AVENUE BALTIMORE,501 E Pratt St,Baltimore,,Maryland,"501 E Pratt St, Baltimore, MD 21202, USA",39.2853948,-76.6083877,ROOFTOP,ChIJXVZn5GIDyIkRjn58fGGo8Mc,"aquarium,establishment,museum,point_of_interest,tourist_attraction",21202,4836 BEAUFORT AVENUE BALTIMORE,1,OK,32.11449585
37,2020-01-14 11:30 AM,$16K,1504 LIGHT ST,BALTIMORE,21230,"BALTIMORE CITY COURTHOUSE AT 100 N CALVERT ST, (COURTHOUSE WEST), BALTIMORE, MD 21202",12/27/2019,1504 LIGHT ST BALTIMORE,1504 Light St,Baltimore,,Maryland,"1504 Light St, Baltimore, MD 21230, USA",39.2725449,-76.6119056,ROOFTOP,ChIJ48wTqW4DyIkR-CdF6xJ3Mh0,street_address,21230,1504 LIGHT ST BALTIMORE,2,OK,31.23825488
38,2020-01-14 12:00 PM,10%,3125 WAREHOUSE LANDING ROAD,BRYANS ROAD,20616,"CHARLES COURTHOUSE AT 200 CHARLES STREET ( IN THE BREEZEWAY BETWEEN CIRCUIT AND DISTRICT COURTS ), LA PLATA, MD 20646",12/27/2019,3125 WAREHOUSE LANDING ROAD BRYANS ROAD,3125 Warehouse Landing Rd,Bryans Road,Charles County,Maryland,"3125 Warehouse Landing Rd, Bryans Road, MD 20616, USA",38.6260644,-77.0833149,ROOFTOP,ChIJeckHWZSpt4kR2-_lbFaBfwg,premise,20616,3125 WAREHOUSE LANDING ROAD BRYANS ROAD,1,OK,20.18330676
39,2020-01-14 12:00 PM,10%,6115 RIPLEY WAY,LA PLATA,20646,"CHARLES COURTHOUSE AT 200 CHARLES STREET ( IN THE BREEZEWAY BETWEEN CIRCUIT AND DISTRICT COURTS ), LA PLATA, MD 20646",12/27/2019,6115 RIPLEY WAY LA PLATA,6115 Ripley Way,La Plata,Charles County,Maryland,"6115 Ripley Way, La Plata, MD 20646, USA",38.5442553,-77.0742994,ROOFTOP,ChIJA8WC-usGt4kRFX7ppja9Gds,premise,20646,6115 RIPLEY WAY LA PLATA,1,OK,24.89529562
40,2020-01-14 2:00 PM,10%,1604 WOODHILL COURT,HYATTSVILLE,20785,"PRINCE GEORGES COURTHOUSE AT FRONT OF THE DUVAL WING OF THE COURTHOUSE COMPLEX 14735 MAIN ST, UPPER MARLBORO, MD 20772",12/27/2019,1604 WOODHILL COURT HYATTSVILLE,1604 Woodhill Ct,Hyattsville,Prince George's County,Maryland,"1604 Woodhill Ct, Hyattsville, MD 20785, USA",38.9124553,-76.9201232,ROOFTOP,ChIJF1srk6q4t4kRtRoJXgsebFg,premise,20785,1604 WOODHILL COURT HYATTSVILLE,1,OK,3.684170926
41,2020-01-14 2:00 PM,10%,4012 MEADOW TRAIL LANE,HYATTSVILLE,20784,"PRINCE GEORGES COURTHOUSE AT FRONT OF THE DUVAL WING OF THE COURTHOUSE COMPLEX 14735 MAIN ST, UPPER MARLBORO, MD 20772",12/27/2019,4012 MEADOW TRAIL LANE HYATTSVILLE,4012 Meadow Trail Ln,Hyattsville,Prince George's County,Maryland,"4012 Meadow Trail Ln, Hyattsville, MD 20784, USA",38.939832,-76.903637,ROOFTOP,ChIJTz6LVMTAt4kRFcbx9I7OTLg,street_address,20784,4012 MEADOW TRAIL LANE HYATTSVILLE,1,OK,4.991587787
42,2020-01-14 2:00 PM,10%,5311 ACORN DRIVE,TEMPLE HILLS,20748,"PRINCE GEORGES COURTHOUSE AT FRONT OF THE DUVAL WING OF THE COURTHOUSE COMPLEX 14735 MAIN ST, UPPER MARLBORO, MD 20772",12/27/2019,5311 ACORN DRIVE TEMPLE HILLS,5311 Acorn Dr,Temple Hills,Prince George's County,Maryland,"5311 Acorn Dr, Temple Hills, MD 20748, USA",38.8002969,-76.9156208,ROOFTOP,ChIJDyDbgHe8t4kRDQlz2jc0xYA,premise,20748,5311 ACORN DRIVE TEMPLE HILLS,1,OK,5.248992049
43,2020-01-14 2:00 PM,10%,10011 WELSHIRE DRIVE,UPPER MARLBORO,20772,"PRINCE GEORGES COURTHOUSE AT FRONT OF THE DUVAL WING OF THE COURTHOUSE COMPLEX 14735 MAIN ST, UPPER MARLBORO, MD 20772",12/27/2019,10011 WELSHIRE DRIVE UPPER MARLBORO,10011 Welshire Dr,Upper Marlboro,Prince George's County,Maryland,"10011 Welshire Dr, Upper Marlboro, MD 20772, USA",38.8070282,-76.8322056,ROOFTOP,ChIJq0_MTvG9t4kR82gG6Wa-WjY,premise,20772,10011 WELSHIRE DRIVE UPPER MARLBORO,1,OK,5.024614533
44,2020-01-14 2:00 PM,10%,4134 CANDY APPLE LANE #5,SUITLAND,20746,"PRINCE GEORGES COURTHOUSE AT FRONT OF THE DUVAL WING OF THE COURTHOUSE COMPLEX 14735 MAIN ST, UPPER MARLBORO, MD 20772",12/27/2019,4134 CANDY APPLE LANE #5 SUITLAND,,,,,,,,,,,,4134 CANDY APPLE LANE #5 SUITLAND,0,REQUEST_DENIED,
45,2020-01-14 2:00 PM,10%,6401 KILMER STREET,CHEVERLY,20785,"PRINCE GEORGES COURTHOUSE AT FRONT OF THE DUVAL WING OF THE COURTHOUSE COMPLEX 14735 MAIN ST, UPPER MARLBORO, MD 20772",12/27/2019,6401 KILMER STREET CHEVERLY,6401 Kilmer St,Cheverly,Prince George's County,Maryland,"6401 Kilmer St, Cheverly, MD 20785, USA",38.931254,-76.905996,ROOFTOP,ChIJw__OIrjAt4kRW40NnLYQl1I,street_address,20785,6401 KILMER STREET CHEVERLY,1,OK,4.466080595
46,2020-01-14 2:00 PM,10%,3407 EVERETTE DRIVE,BOWIE,20716,"PRINCE GEORGES COURTHOUSE AT FRONT OF THE DUVAL WING OF THE COURTHOUSE COMPLEX 14735 MAIN ST, UPPER MARLBORO, MD 20772",12/27/2019,3407 EVERETTE DRIVE BOWIE,3407 Everette Dr,Bowie,Prince George's County,Maryland,"3407 Everette Dr, Bowie, MD 20716, USA",38.9365907,-76.7381837,ROOFTOP,ChIJtXqadYHrt4kRVA7-iCbTp-Q,premise,20716,3407 EVERETTE DRIVE BOWIE,1,OK,8.800676307
47,2020-01-14 2:00 PM,10%,5610 SHAWNEE DRIVE,OXON HILL,20745,"PRINCE GEORGES COURTHOUSE AT FRONT OF THE DUVAL WING OF THE COURTHOUSE COMPLEX 14735 MAIN ST, UPPER MARLBORO, MD 20772",12/27/2019,5610 SHAWNEE DRIVE OXON HILL,5610 Shawnee Dr,Oxon Hill,Prince George's County,Maryland,"5610 Shawnee Dr, Oxon Hill, MD 20745, USA",38.8122401,-76.9959647,ROOFTOP,ChIJ58iW-G66t4kRDzOLqh5-N9w,premise,20745,5610 SHAWNEE DRIVE OXON HILL,1,OK,7.5121931
48,2020-01-14 2:00 PM,10%,2515 LARRY AVENUE,FORT WASHINGTON,20744,"PRINCE GEORGES COURTHOUSE AT FRONT OF THE DUVAL WING OF THE COURTHOUSE COMPLEX 14735 MAIN ST, UPPER MARLBORO, MD 20772",12/27/2019,2515 LARRY AVENUE FORT WASHINGTON,2515 Larry Ave,Fort Washington,Prince George's County,Maryland,"2515 Larry Ave, Fort Washington, MD 20744, USA",38.8116006,-76.9643285,ROOFTOP,ChIJG4fSsrS7t4kRTs57xaZiMGo,premise,20744,2515 LARRY AVENUE FORT WASHINGTON,1,OK,6.170556178
49,2020-01-14 2:00 PM,10%,8203 THORNFIELD TER,DISTRICT HEIGHTS,20747,"PRINCE GEORGES COURTHOUSE AT FRONT OF THE DUVAL WING OF THE COURTHOUSE COMPLEX 14735 MAIN ST, UPPER MARLBORO, MD 20772",12/27/2019,8203 THORNFIELD TER DISTRICT HEIGHTS,8203 Thornfield Terrace,District Heights,Prince George's County,Maryland,"8203 Thornfield Terrace, District Heights, MD 20747, USA",38.8558998,-76.8649568,ROOFTOP,ChIJk7Q6C1q-t4kRbmjb3WF_RsM,premise,20747,8203 THORNFIELD TER DISTRICT HEIGHTS,1,OK,1.223360968
50,2020-01-14 3:00 PM,"$33,900.00K",1501 HANDYS MEADOW,SALISBURY,21801,"WICOMICO COURTHOUSE AT 101 NORTH DIVISION STREET, SALISBURY, MARYLAND 21801",12/27/2019,1501 HANDYS MEADOW SALISBURY,305 N Division St,Salisbury,Wicomico County,Maryland,"305 N Division St, Salisbury, MD 21801, USA",38.368766,-75.599531,ROOFTOP,ChIJ_cDe5cADuYkRHC5IPZ4ogvY,"establishment,health,point_of_interest,spa",21801,1501 HANDYS MEADOW SALISBURY,1,OK,77.22962232
51,2020-01-14 4:00 PM,10%,14 COUNTRY CLUB DRIVE,GLEN BURNIE,21060,"ANNE ARUNDEL COURTHOUSE AT 8 CHURCH CIR, ANNAPOLIS, MD 21401",12/27/2019,14 COUNTRY CLUB DRIVE GLEN BURNIE,7900 Connecticut Ave,Chevy Chase,Montgomery County,Maryland,"7900 Connecticut Ave, Chevy Chase, MD 20815, USA",38.9889707,-77.0785299,ROOFTOP,ChIJs42J0UHJt4kR9zjFSvqvwpg,"establishment,point_of_interest",20815,14 COUNTRY CLUB DRIVE GLEN BURNIE,1,OK,13.53784903
52,2020-01-14 4:00 PM,10%,911 MEADOWBROOK ROAD,GLEN BURNIE,21061,"ANNE ARUNDEL COURTHOUSE AT 8 CHURCH CIR, ANNAPOLIS, MD 21401",12/27/2019,911 MEADOWBROOK ROAD GLEN BURNIE,911 Meadowbrook Rd,Glen Burnie,Anne Arundel County,Maryland,"911 Meadowbrook Rd, Glen Burnie, MD 21061, USA",39.16027,-76.6422865,ROOFTOP,ChIJc99COy3jt4kRj0PZmXxnU10,premise,21061,911 MEADOWBROOK ROAD GLEN BURNIE,1,OK,23.69164719
53,2020-01-14 4:00 PM,10%,3 CLARA CIRCLE,GLEN BURNIE,21060,"ANNE ARUNDEL COURTHOUSE AT 8 CHURCH CIR, ANNAPOLIS, MD 21401",12/27/2019,3 CLARA CIRCLE GLEN BURNIE,3 Clara Cir,Glen Burnie,Anne Arundel County,Maryland,"3 Clara Cir, Glen Burnie, MD 21060, USA",39.1446906,-76.5904737,ROOFTOP,ChIJz6veYV78t4kRTWOR1Ab3vQs,premise,21060,3 CLARA CIRCLE GLEN BURNIE,1,OK,24.44429401
54,2020-01-14 4:00 PM,10%,1172 RAMBLEWOOD DRIVE,ANNAPOLIS,21409,"ANNE ARUNDEL COURTHOUSE AT 8 CHURCH CIR, ANNAPOLIS, MD 21401",12/27/2019,1172 RAMBLEWOOD DRIVE ANNAPOLIS,1172 Ramblewood Dr,Annapolis,Anne Arundel County,Maryland,"1172 Ramblewood Dr, Annapolis, MD 21409, USA",39.0453717,-76.4563838,ROOFTOP,ChIJXeeKWHX4t4kR6inZEiyfwmM,premise,21409,1172 RAMBLEWOOD DRIVE ANNAPOLIS,2,OK,25.6776544
55,2020-01-15 9:30 AM,10%,12525 FIELDS LANE,MOUNT AIRY,21771,"FREDERICK COURTHOUSE AT 100 W. PATRICK ST, FREDERICK, MD 21701",12/30/2019,12525 FIELDS LANE MOUNT AIRY,12525 Fields Ln,Mount Airy,Frederick County,Maryland,"12525 Fields Ln, Mt Airy, MD 21771, USA",39.347781,-77.23069,ROOFTOP,ChIJYU6_jo_UyYkRmzaMPC1-fRg,street_address,21771,12525 FIELDS LANE MOUNT AIRY,2,OK,38.01923008
56,2020-01-15 12:00 P,$15.5 K,1401 MERIDENE DRIVE,BALTIMORE,21239,"BALTIMORE CITY COURTHOUSE AT 100 N CALVERT ST, (COURTHOUSE WEST), BALTIMORE, MD 21202",12/30/2019,1401 MERIDENE DRIVE BALTIMORE,1401 Meridene Dr,Baltimore,,Maryland,"1401 Meridene Dr, Baltimore, MD 21239, USA",39.3680365,-76.5873386,ROOFTOP,ChIJ07Oou30PyIkRC0O3MC1KSuE,premise,21239,1401 MERIDENE DRIVE BALTIMORE,2,OK,37.74975416
57,2020-01-15 10:00 AM,"$40,400.00 K",7210 BRICKYARD STATION DRIVE,BELTSVILLE,20705,"PRINCE GEORGES COURTHOUSE AT FRONT OF THE DUVAL WING OF THE COURTHOUSE COMPLEX 14735 MAIN ST, UPPER MARLBORO, MD 20772",12/30/2019,7210 BRICKYARD STATION DRIVE BELTSVILLE,7210 Brickyard Station Dr,Beltsville,Prince George's County,Maryland,"7210 Brickyard Station Dr, Beltsville, MD 20705, USA",39.0619077,-76.8802145,ROOFTOP,ChIJw5IAmSXDt4kRbPB09fCNTJw,premise,20705,7210 BRICKYARD STATION DRIVE BELTSVILLE,1,OK,13.23292955
58,2020-01-15 10:00 AM,"$17,000.00K",6506 HALLECK STREET,DISTRICT HEIGHTS,20747,"PRINCE GEORGES COURTHOUSE AT FRONT OF THE DUVAL WING OF THE COURTHOUSE COMPLEX 14735 MAIN ST, UPPER MARLBORO, MD 20772",12/30/2019,6506 HALLECK STREET DISTRICT HEIGHTS,6506 Halleck St,District Heights,Prince George's County,Maryland,"6506 Halleck St, District Heights, MD 20747, USA",38.855096,-76.8952676,ROOFTOP,ChIJC2BjCMK-t4kRUyhrutSVFSc,premise,20747,6506 HALLECK STREET DISTRICT HEIGHTS,1,OK,1.406488716
59,2020-01-15 10:00 AM,$27 K,11602 PISCATAWAY ROAD,CLINTON,20735,"PRINCE GEORGES COURTHOUSE AT FRONT OF THE DUVAL WING OF THE COURTHOUSE COMPLEX 14735 MAIN ST, UPPER MARLBORO, MD 20772",12/30/2019,11602 PISCATAWAY ROAD CLINTON,11602 Piscataway Rd,Clinton,Prince George's County,Maryland,"11602 Piscataway Rd, Clinton, MD 20735, USA",38.7302297,-76.9472695,ROOFTOP,ChIJp-68i-mkt4kRaqfUgErEzYI,premise,20735,11602 PISCATAWAY ROAD CLINTON,1,OK,10.37746062
60,2020-01-15 10:00 AM,$50 K,12902 WOODMORE NORTH BOULEVARD,BOWIE,20720,"PRINCE GEORGES COURTHOUSE AT FRONT OF THE DUVAL WING OF THE COURTHOUSE COMPLEX 14735 MAIN ST, UPPER MARLBORO, MD 20772",12/30/2019,12902 WOODMORE NORTH BOULEVARD BOWIE,12902 Woodmore N Blvd,Bowie,Prince George's County,Maryland,"12902 Woodmore N Blvd, Bowie, MD 20720, USA",38.9702074,-76.7768156,ROOFTOP,ChIJUbGWYdLrt4kRWqOxhSsIGj8,street_address,20720,12902 WOODMORE NORTH BOULEVARD BOWIE,1,OK,8.784007605
61,2020-01-15 10:00 AM,"$13,200.00 K",2812 WEST AVENUE,FORESTVILLE,20747,"PRINCE GEORGES COURTHOUSE AT FRONT OF THE DUVAL WING OF THE COURTHOUSE COMPLEX 14735 MAIN ST, UPPER MARLBORO, MD 20772",12/30/2019,2812 WEST AVENUE FORESTVILLE,2812 West Ave,District Heights,Prince George's County,Maryland,"2812 West Ave, District Heights, MD 20747, USA",38.8497513,-76.9111182,ROOFTOP,ChIJg6XJara-t4kRa-9KrZrpFYI,premise,20747,2812 WEST AVENUE FORESTVILLE,1,OK,2.281509598
62,2020-01-15 10:00 AM,"$28,300.00K",815 INDIAN WELLS COURT,BOWIE,20721,"PRINCE GEORGES COURTHOUSE AT FRONT OF THE DUVAL WING OF THE COURTHOUSE COMPLEX 14735 MAIN ST, UPPER MARLBORO, MD 20772",12/30/2019,815 INDIAN WELLS COURT BOWIE,815 Indian Wells Ct,Bowie,Prince George's County,Maryland,"815 Indian Wells Ct, Bowie, MD 20721, USA",38.9022031,-76.8059804,ROOFTOP,ChIJuV8X4bTqt4kRwZ23mUsHD8g,premise,20721,815 INDIAN WELLS COURT BOWIE,1,OK,4.454364023
63,2020-01-15 10:00 AM,$17.7 K,8511 SCHULTZ ROAD,CLINTON,20735,"PRINCE GEORGES COURTHOUSE AT FRONT OF THE DUVAL WING OF THE COURTHOUSE COMPLEX 14735 MAIN ST, UPPER MARLBORO, MD 20772",12/30/2019,8511 SCHULTZ ROAD CLINTON,8511 Schultz Rd,Clinton,Prince George's County,Maryland,"8511 Schultz Rd, Clinton, MD 20735, USA",38.7719877,-76.8974292,ROOFTOP,ChIJuze9hJS8t4kRC1VNgh6znZI,premise,20735,8511 SCHULTZ ROAD CLINTON,1,OK,6.878975598
64,2020-01-15 10:00 AM,"$22,200.00 K",801 STAG WAY,FORT WASHINGTON,20744,"PRINCE GEORGES COURTHOUSE AT FRONT OF THE DUVAL WING OF THE COURTHOUSE COMPLEX 14735 MAIN ST, UPPER MARLBORO, MD 20772",12/30/2019,801 STAG WAY FORT WASHINGTON,801 Stag Way,Fort Washington,Prince George's County,Maryland,"801 Stag Way, Fort Washington, MD 20744, USA",38.7653683,-77.020215,ROOFTOP,ChIJfyhHYQOwt4kR6CNL3qpmV30,premise,20744,801 STAG WAY FORT WASHINGTON,1,OK,10.54773895
65,2020-01-15 10:00 AM,"$44,400.00K",13804 WATER FOWL WAY,UPPER MARLBORO,20774,"PRINCE GEORGES COURTHOUSE AT FRONT OF THE DUVAL WING OF THE COURTHOUSE COMPLEX 14735 MAIN ST, UPPER MARLBORO, MD 20772",12/30/2019,13804 WATER FOWL WAY UPPER MARLBORO,13804 Water Fowl Way,Upper Marlboro,Prince George's County,Maryland,"13804 Water Fowl Way, Upper Marlboro, MD 20774, USA",38.8652754,-76.7689074,ROOFTOP,ChIJHUgLrvqUt4kRIqljd3nslbw,premise,20774,13804 WATER FOWL WAY UPPER MARLBORO,1,OK,5.88038854
66,2020-01-15 10:00 AM,"$39,800.00 K",5612 KAVEH COURT,UPPER MARLBORO,20772,"PRINCE GEORGES COURTHOUSE AT FRONT OF THE DUVAL WING OF THE COURTHOUSE COMPLEX 14735 MAIN ST, UPPER MARLBORO, MD 20772",12/30/2019,5612 KAVEH COURT UPPER MARLBORO,5612 Kaveh Ct,Upper Marlboro,Prince George's County,Maryland,"5612 Kaveh Ct, Upper Marlboro, MD 20772, USA",38.8100861,-76.8322507,ROOFTOP,ChIJX91StvC9t4kRRkq9GE6_fq4,premise,20772,5612 KAVEH COURT UPPER MARLBORO,1,OK,4.840367238
67,2020-01-15 10:00 AM,"$50,000.00 K",410 HAYWORTH PLACE,OXON HILL,20745,"PRINCE GEORGES COURTHOUSE AT FRONT OF THE DUVAL WING OF THE COURTHOUSE COMPLEX 14735 MAIN ST, UPPER MARLBORO, MD 20772",12/30/2019,410 HAYWORTH PLACE OXON HILL,410 Hayworth Pl,Oxon Hill,Prince George's County,Maryland,"410 Hayworth Pl, Oxon Hill, MD 20745, USA",38.786291,-77.0016115,ROOFTOP,ChIJi4ofU5q6t4kRtQu6dbxd0wM,premise,20745,410 HAYWORTH PLACE OXON HILL,1,OK,8.832982605
68,2020-01-15 10:15 AM,$20K,126 S AUGUSTA AVENUE,BALTIMORE,21229,"BALTIMORE CITY COURTHOUSE AT 100 N CALVERT ST, (COURTHOUSE WEST), BALTIMORE, MD 21202",12/30/2019,126 S AUGUSTA AVENUE BALTIMORE,205 S Augusta Ave,Baltimore,,Maryland,"205 S Augusta Ave, Baltimore, MD 21229, USA",39.282993,-76.6843516,ROOFTOP,ChIJGSJMAYkcyIkRGehQnmWKCxA,"church,establishment,place_of_worship,point_of_interest",21229,126 S AUGUSTA AVENUE BALTIMORE,1,OK,30.34152393
69,2020-01-15 10:15 AM,$20K,6111 SEFTON AVENUE,BALTIMORE,21214,"BALTIMORE CITY COURTHOUSE AT 100 N CALVERT ST, (COURTHOUSE WEST), BALTIMORE, MD 21202",12/30/2019,6111 SEFTON AVENUE BALTIMORE,5609 Sefton Ave,Baltimore,,Maryland,"5609 Sefton Ave, Baltimore, MD 21214, USA",39.3500034,-76.5551282,ROOFTOP,ChIJSUDfnOQFyIkR6-HqVYyQ5CY,"establishment,point_of_interest,school",21214,6111 SEFTON AVENUE BALTIMORE,1,OK,37.3868954
70,2020-01-15 11:00 AM,$25K,5407 TAYLOR ST,BLADENSBURG,20710,"PRINCE GEORGES COURTHOUSE AT FRONT OF THE DUVAL WING OF THE COURTHOUSE COMPLEX 14735 MAIN ST, UPPER MARLBORO, MD 20772",12/30/2019,5407 TAYLOR ST BLADENSBURG,5407 Taylor St,Bladensburg,Prince George's County,Maryland,"5407 Taylor St, Bladensburg, MD 20710, USA",38.9404253,-76.9259312,ROOFTOP,ChIJ7150MTHHt4kRpsT_v1Ulrzg,premise,20710,5407 TAYLOR ST BLADENSBURG,1,OK,5.48179326
71,2020-01-15 11:00 AM,10%,906 MERRIDALE BOULEVARD,MOUNT AIRY,21771,"CARROLL COURTHOUSE AT 200 WILLIS ST (HISTORIC COURTHOUSE) WESTMINSTER, MD 21157",12/30/2019,906 MERRIDALE BOULEVARD MOUNT AIRY,603 E Ridgeville Blvd,Mount Airy,Carroll County,Maryland,"603 E Ridgeville Blvd, Mt Airy, MD 21771, USA",39.3636678,-77.1575262,ROOFTOP,ChIJX0W_Xo4syIkRgOSou1DhqUU,"establishment,health,point_of_interest",21771,906 MERRIDALE BOULEVARD MOUNT AIRY,1,OK,37.23016785
72,2020-01-15 11:00 AM,10%,820 AMANDA DRIVE,WESTMINSTER,21158,"CARROLL COURTHOUSE AT 200 WILLIS ST (HISTORIC COURTHOUSE) WESTMINSTER, MD 21157",12/30/2019,820 AMANDA DRIVE WESTMINSTER,820 Amanda Dr,Westminster,Carroll County,Maryland,"820 Amanda Dr, Westminster, MD 21158, USA",39.5995791,-77.0542748,ROOFTOP,ChIJT9MG8jRIyIkRvifqYRaAb5Y,street_address,21158,820 AMANDA DRIVE WESTMINSTER,2,OK,51.25732004
73,2020-01-15 11:15 AM,$18K,7615 MOUNTAIN VIEW WAY,HYATTSVILLE,20785,"PRINCE GEORGES COURTHOUSE AT FRONT OF THE DUVAL WING OF THE COURTHOUSE COMPLEX 14735 MAIN ST, UPPER MARLBORO, MD 20772",12/30/2019,7615 MOUNTAIN VIEW WAY HYATTSVILLE,7615 Mountain View Way,Hyattsville,Prince George's County,Maryland,"7615 Mountain View Way, Hyattsville, MD 20785, USA",38.8929626,-76.873605,ROOFTOP,ChIJy2-W33W_t4kRNasobVRsdUE,premise,20785,7615 MOUNTAIN VIEW WAY HYATTSVILLE,1,OK,1.577378963
74,2020-01-15 11:45 AM,$20K,7707 PADDOCK WAY,WINDSOR MILL,21244,"BALTIMORE COURTHOUSE AT 401 BOSLEY AVE (MAIN ENTRANCE FACING PATRIOT PLAZA), TOWSON, MD 21204",12/26/2019,7707 PADDOCK WAY WINDSOR MILL,7707 Paddock Way,Woodlawn,Baltimore County,Maryland,"7707 Paddock Way, Windsor Mill, MD 21244, USA",39.312047,-76.7760534,ROOFTOP,ChIJAV56YykZyIkRS7Nb5BIzbDs,premise,21244,7707 PADDOCK WAY WINDSOR MILL,2,OK,31.00141249
75,2020-01-15 11:45 AM,$20K,2611 PURNELL DRIVE,BALTIMORE,21207,"BALTIMORE COURTHOUSE AT 401 BOSLEY AVE (MAIN ENTRANCE FACING PATRIOT PLAZA), TOWSON, MD 21204",12/26/2019,2611 PURNELL DRIVE BALTIMORE,2611 Purnell Dr,Baltimore,Baltimore County,Maryland,"2611 Purnell Dr, Baltimore, MD 21207, USA",39.3227476,-76.711802,ROOFTOP,ChIJH9kajcAbyIkR47zrYTPktbo,street_address,21207,2611 PURNELL DRIVE BALTIMORE,2,OK,32.50072132
76,2020-01-15 11:45 AM,$20K,"811 JEANNETTE AVENUE,",BALTIMORE,21222,"BALTIMORE COURTHOUSE AT 401 BOSLEY AVE (MAIN ENTRANCE FACING PATRIOT PLAZA), TOWSON, MD 21204",12/26/2019,"811 JEANNETTE AVENUE, BALTIMORE",501 E Pratt St,Baltimore,,Maryland,"501 E Pratt St, Baltimore, MD 21202, USA",39.2853948,-76.6083877,ROOFTOP,ChIJXVZn5GIDyIkRjn58fGGo8Mc,"aquarium,establishment,museum,point_of_interest,tourist_attraction",21202,"811 JEANNETTE AVENUE, BALTIMORE",1,OK,32.11449585
77,2020-01-15 12:00 PM,"$20,400.00K",1011 NORTH HUNTER STREET UNIT A-4,BALTIMORE,21202,"BALTIMORE CITY COURTHOUSE AT 100 N CALVERT ST, (COURTHOUSE WEST), BALTIMORE, MD 21202",12/30/2019,1011 NORTH HUNTER STREET UNIT A-4 BALTIMORE,1011 Hunter St,Baltimore,,Maryland,"1011 Hunter St UNIT A-4, Baltimore, MD 21202, USA",39.30177,-76.6122129,ROOFTOP,EjJVTklUIEEtNCwgMTAxMSBIdW50ZXIgU3QsIEJhbHRpbW9yZSwgTUQgMjEyMDIsIFVTQSIkGiIKFgoUChIJrxROtZYEyIkRDdE-n7vuz6ASCFVOSVQgQS00,subpremise,21202,1011 NORTH HUNTER STREET UNIT A-4 BALTIMORE,2,OK,33.03885136
78,2020-01-15 12:00 PM,"$5,800.00K",5945 LILLYAN AVENUE,BALTIMORE,21206,"BALTIMORE CITY COURTHOUSE AT 100 N CALVERT ST, (COURTHOUSE WEST), BALTIMORE, MD 21202",12/30/2019,5945 LILLYAN AVENUE BALTIMORE,5949 Lillyan Ave,Baltimore,,Maryland,"5949 Lillyan Ave, Baltimore, MD 21206, USA",39.3488273,-76.5442799,ROOFTOP,ChIJL8FL2QgGyIkRO3JzMx9BoQo,"establishment,point_of_interest",21206,5945 LILLYAN AVENUE BALTIMORE,1,OK,37.5882963
79,2020-01-15 12:00 PM,$17.2K,4619 SHAMROCK AVENUE,BALTIMORE,21206,"BALTIMORE CITY COURTHOUSE AT 100 N CALVERT ST, (COURTHOUSE WEST), BALTIMORE, MD 21202",12/30/2019,4619 SHAMROCK AVENUE BALTIMORE,4619 Shamrock Ave,Baltimore,,Maryland,"4619 Shamrock Ave, Baltimore, MD 21206, USA",39.3234204,-76.5580913,ROOFTOP,ChIJw-6P59IFyIkRLBdvVWA9MoE,premise,21206,4619 SHAMROCK AVENUE BALTIMORE,2,OK,35.69398972
80,2020-01-15 12:00 PM,"$28,900.00 K",2505 HAMILTON AVENUE,BALTIMORE,21214,"BALTIMORE CITY COURTHOUSE AT 100 N CALVERT ST, (COURTHOUSE WEST), BALTIMORE, MD 21202",12/30/2019,2505 HAMILTON AVENUE BALTIMORE,2300 Hamilton Ave,Baltimore,,Maryland,"2300 Hamilton Ave, Baltimore, MD 21214, USA",39.3566924,-76.5692697,ROOFTOP,ChIJP8U6AvMFyIkROdMnVuI4i2U,"establishment,food,grocery_or_supermarket,point_of_interest,store",21214,2505 HAMILTON AVENUE BALTIMORE,1,OK,37.45563575
81,2020-01-15 12:00 PM,$11.9 K,3932 REXMERE ROAD,BALTIMORE,21218,"BALTIMORE CITY COURTHOUSE AT 100 N CALVERT ST, (COURTHOUSE WEST), BALTIMORE, MD 21202",12/30/2019,3932 REXMERE ROAD BALTIMORE,3932 Rexmere Rd,Baltimore,,Maryland,"3932 Rexmere Rd, Baltimore, MD 21218, USA",39.3362291,-76.60222,ROOFTOP,ChIJfZek6gUFyIkR7WsZYtzFZ9k,premise,21218,3932 REXMERE ROAD BALTIMORE,2,OK,35.42061653
82,2020-01-15 12:00 PM,$5K,4000 BOARMAN AVENUE,BALTIMORE,21215,"BALTIMORE CITY COURTHOUSE AT 100 N CALVERT ST, (COURTHOUSE WEST), BALTIMORE, MD 21202",12/30/2019,4000 BOARMAN AVENUE BALTIMORE,,Baltimore,,Maryland,"GARRISON BLVD & BOARMAN AVE nb, Baltimore, MD 21215, USA",39.334502,-76.683771,GEOMETRIC_CENTER,ChIJw6xVpgEbyIkRj3DSvDgCePo,"establishment,point_of_interest,transit_station",21215,4000 BOARMAN AVENUE BALTIMORE,1,OK,33.71584324
83,2020-01-15 12:00 PM,$8.5K,621 ALLENDALE STREET,BALTIMORE,21229,"BALTIMORE CITY COURTHOUSE AT 100 N CALVERT ST, (COURTHOUSE WEST), BALTIMORE, MD 21202",12/30/2019,621 ALLENDALE STREET BALTIMORE,835 Allendale St,Baltimore,,Maryland,"835 Allendale St, Baltimore, MD 21229, USA",39.2975004,-76.6782284,ROOFTOP,ChIJt9kUGX0byIkR5mr7_8GxlpY,"establishment,point_of_interest",21229,621 ALLENDALE STREET BALTIMORE,1,OK,31.39539827
84,2020-01-15 1:00 PM,10%,901 GILBERT ROAD,ROCKVILLE,20851,"MONTGOMERY COURTHOUSE AT 50 MARYLAND AVENUE, ROCKVILLE, MD 20850",12/30/2019,901 GILBERT ROAD ROCKVILLE,901 Gilbert Rd,Rockville,Montgomery County,Maryland,"901 Gilbert Rd, Rockville, MD 20851, USA",39.082846,-77.1350564,ROOFTOP,ChIJuwCHuJfNt4kRQwTAEll1ryE,premise,20851,901 GILBERT ROAD ROCKVILLE,1,OK,20.15169181
85,2020-01-15 1:00 PM,10%,2705 NAVARRE DRIVE,CHEVY CHASE,20815,"MONTGOMERY COURTHOUSE AT 50 MARYLAND AVENUE, ROCKVILLE, MD 20850",12/30/2019,2705 NAVARRE DRIVE CHEVY CHASE,2705 Navarre Dr,Chevy Chase,Montgomery County,Maryland,"2705 Navarre Dr, Chevy Chase, MD 20815, USA",38.9950346,-77.0552096,ROOFTOP,ChIJoXQwRt_It4kRBpgiQeJIwkQ,premise,20815,2705 NAVARRE DRIVE CHEVY CHASE,1,OK,12.83979083
86,2020-01-15 1:00 PM,10%,9002 SUDBURY ROAD,SILVER SPRING,20901,"MONTGOMERY COURTHOUSE AT 50 MARYLAND AVENUE, ROCKVILLE, MD 20850",12/30/2019,9002 SUDBURY ROAD SILVER SPRING,9002 Sudbury Rd,Silver Spring,Montgomery County,Maryland,"9002 Sudbury Rd, Silver Spring, MD 20901, USA",39.0036644,-77.0048285,ROOFTOP,ChIJUzAAzQDGt4kRt_TTDVoBgL4,premise,20901,9002 SUDBURY ROAD SILVER SPRING,1,OK,11.45587447
87,2020-01-15 1:00 PM,10%,23803 BRANCHBRIER WAY,CLARKSBURG,20871,"MONTGOMERY COURTHOUSE AT 50 MARYLAND AVENUE, ROCKVILLE, MD 20850",12/30/2019,23803 BRANCHBRIER WAY CLARKSBURG,3001 Connecticut Ave NW,Washington,,District of Columbia,"3001 Connecticut Ave NW, Washington, DC 20008, USA",38.9296156,-77.0497844,ROOFTOP,ChIJ3_DHHda3t4kR5BsMSyCsaJ4,"establishment,point_of_interest,tourist_attraction,zoo",20008,23803 BRANCHBRIER WAY CLARKSBURG,1,OK,10.10191407
88,2020-01-15 1:00 PM,10%,18410 BRIGHT PLUME TR,BOYDS,20841,"MONTGOMERY COURTHOUSE AT 50 MARYLAND AVENUE, ROCKVILLE, MD 20850",12/30/2019,18410 BRIGHT PLUME TR BOYDS,18410 Bright Plume Terrace,Boyds,Montgomery County,Maryland,"18410 Bright Plume Terrace, Boyds, MD 20841, USA",39.1601816,-77.3028927,ROOFTOP,ChIJBxHgPGIutokRanFFPdpr2gA,premise,20841,18410 BRIGHT PLUME TR BOYDS,1,OK,30.35034767
89,2020-01-15 1:00 PM,10%,1104 DOWNS DRIVE,SILVER SPRING,20904,"MONTGOMERY COURTHOUSE AT 50 MARYLAND AVENUE, ROCKVILLE, MD 20850",12/30/2019,1104 DOWNS DRIVE SILVER SPRING,1104 Downs Dr,Silver Spring,Montgomery County,Maryland,"1104 Downs Dr, Silver Spring, MD 20904, USA",39.0599448,-76.9879552,ROOFTOP,ChIJK0W_V2vFt4kR0QsSdkzaRxs,premise,20904,1104 DOWNS DRIVE SILVER SPRING,1,OK,14.36685155
90,2020-01-15 2:00 PM,$38.8 K,2801 12TH STREET,BALTIMORE,21219,"BALTIMORE COURTHOUSE AT 401 BOSLEY AVE (MAIN ENTRANCE FACING PATRIOT PLAZA), TOWSON, MD 21204",12/30/2019,2801 12TH STREET BALTIMORE,2801 12th St NE,Washington,,District of Columbia,"2801 12th St NE, Washington, DC 20017, USA",38.9256515,-76.9902501,ROOFTOP,ChIJB8aavkbHt4kRteM-qZYcsok,"establishment,food,meal_delivery,meal_takeaway,point_of_interest,restaurant",20017,2801 12TH STREET BALTIMORE,1,OK,7.141310786
91,2020-01-15 2:00 PM,"$50,000.00K",7810 DEBOY AVENUE,DUNDALK,21222,"BALTIMORE COURTHOUSE AT 401 BOSLEY AVE (MAIN ENTRANCE FACING PATRIOT PLAZA), TOWSON, MD 21204",12/30/2019,7810 DEBOY AVENUE DUNDALK,7810 Deboy Ave,Dundalk,Baltimore County,Maryland,"7810 Deboy Ave, Dundalk, MD 21222, USA",39.2726861,-76.4799662,ROOFTOP,ChIJe-dYUDUHyIkRQlzS7foNBDE,premise,21222,7810 DEBOY AVENUE DUNDALK,2,OK,35.05013212
92,2020-01-15 2:00 PM,"$17,000.00 K",274 SAINT HELENA AVENUE,DUNDALK,21222,"BALTIMORE COURTHOUSE AT 401 BOSLEY AVE (MAIN ENTRANCE FACING PATRIOT PLAZA), TOWSON, MD 21204",12/30/2019,274 SAINT HELENA AVENUE DUNDALK,275 St Helena Ave,Dundalk,Baltimore County,Maryland,"275 St Helena Ave, Dundalk, MD 21222, USA",39.2598457,-76.5297589,ROOFTOP,ChIJIWG9qUEByIkRafHOIgehg7k,"convenience_store,establishment,food,point_of_interest,store",21222,274 SAINT HELENA AVENUE DUNDALK,2,OK,32.75847201
93,2020-01-15 2:00 PM,"$40,700.00K",7 APPLE VALLEY COURT,PARKTON,21120,"BALTIMORE COURTHOUSE AT 401 BOSLEY AVE (MAIN ENTRANCE FACING PATRIOT PLAZA), TOWSON, MD 21204",12/30/2019,7 APPLE VALLEY COURT PARKTON,7 Apple Valley Ct,Parkton,Baltimore County,Maryland,"7 Apple Valley Ct, Parkton, MD 21120, USA",39.6719446,-76.6500092,ROOFTOP,ChIJB8dHCttvyIkRBch4Yjm1koU,premise,21120,7 APPLE VALLEY COURT PARKTON,2,OK,56.70886715
94,2020-01-15 2:00 PM,"$11,200.00K",3823 CEDAR DRIVE,GWYNN OAK,21207,"BALTIMORE COURTHOUSE AT 401 BOSLEY AVE (MAIN ENTRANCE FACING PATRIOT PLAZA), TOWSON, MD 21204",12/30/2019,3823 CEDAR DRIVE GWYNN OAK,3823 Cedar Dr,Lochearn,Baltimore County,Maryland,"3823 Cedar Dr, Gwynn Oak, MD 21207, USA",39.347513,-76.7191163,RANGE_INTERPOLATED,EiczODIzIENlZGFyIERyLCBHd3lubiBPYWssIE1EIDIxMjA3LCBVU0EiGxIZChQKEgn95JqiMRrIiRG9iRbWLJXoFxDvHQ,street_address,21207,3823 CEDAR DRIVE GWYNN OAK,2,OK,34.04883555
95,2020-01-15 2:30 PM,$20K,2934 STRATHAVEN LANE,ABINGDON,21009,"HARFORD COURTHOUSE AT 20 W COURTLAND ST, BEL AIR, MD 21014",12/27/2019,2934 STRATHAVEN LANE ABINGDON,2934 Strathaven Ln,Abingdon,Harford County,Maryland,"2934 Strathaven Ln, Abingdon, MD 21009, USA",39.4803936,-76.3031862,ROOFTOP,ChIJm3BY1JDnx4kRiGNY3yCWxuk,premise,21009,2934 STRATHAVEN LANE ABINGDON,2,OK,52.19508512
96,2020-01-15 2:30 PM,10%,206 JACKSON STREET,HANCOCK,21750,"WASHINGTON COURTHOUSE AT 95 W. WASHINGTON STREET, HAGERSTOWN, MD 21740",12/30/2019,206 JACKSON STREET HANCOCK,206 Jackson St,Hancock,Washington County,Maryland,"206 Jackson St, Hancock, MD 21750, USA",39.7014445,-78.1851431,ROOFTOP,ChIJ-1hKJhwWyokRqcSGTQq6MTE,premise,21750,206 JACKSON STREET HANCOCK,2,OK,90.4603799
97,2020-01-15 4:15 PM,$20K,108 WASHINGTON STREET,NORTH EAST,21901,"CECIL COURTHOUSE AT 129 E. MAIN ST, ELKTON, MD 21921",12/27/2019,108 WASHINGTON STREET NORTH EAST,2300 Washington Pl NE,Washington,,District of Columbia,"2300 Washington Pl NE #108, Washington, DC 20018, USA",38.9204912,-76.9948173,ROOFTOP,ChIJXeIK5gm4t4kR4cDb7XB6QLo,"electronics_store,establishment,point_of_interest,store",20018,108 WASHINGTON STREET NORTH EAST,1,OK,7.171496331
98,2020-01-15 4:15 PM,$20K,364 OLD CHESTNUT ROAD,ELKTON,21921,"CECIL COURTHOUSE AT 129 E. MAIN ST, ELKTON, MD 21921",12/27/2019,364 OLD CHESTNUT ROAD ELKTON,199 Old Chestnut Rd,Elkton,Cecil County,Maryland,"199 Old Chestnut Rd, Elkton, MD 21921, USA",39.55896,-75.880813,ROOFTOP,ChIJL-wyXdykx4kRsNlBYooi8RY,"establishment,food,point_of_interest,store",21921,364 OLD CHESTNUT ROAD ELKTON,1,OK,71.50534698
99,2020-01-15 4:15 PM,$20K,105 STOCKTON STREET,ELKTON,21921,"CECIL COURTHOUSE AT 129 E. MAIN ST, ELKTON, MD 21921",12/27/2019,105 STOCKTON STREET ELKTON,125 E High St,Elkton,Cecil County,Maryland,"125 E High St, Elkton, MD 21921, USA",39.6099041,-75.8290617,ROOFTOP,ChIJdyd4S12vx4kRmN9rOsju2_k,"establishment,health,point_of_interest",21921,105 STOCKTON STREET ELKTON,1,OK,75.90427092
100,2020-01-16 10:00 AM,10%,8722 HUMMINGBIRD COURT,LAUREL,20723,"HOWARD COURTHOUSE AT 8360 COURT AVE, ELLICOTT CITY, MD 21043",12/31/2019,8722 HUMMINGBIRD COURT LAUREL,8722 Hummingbird Ct,Laurel,Howard County,Maryland,"8722 Hummingbird Ct, Laurel, MD 20723, USA",39.1281781,-76.8689206,ROOFTOP,ChIJAfvHgLPdt4kR3NhVfw7DpsU,premise,20723,8722 HUMMINGBIRD COURT LAUREL,1,OK,17.8179509
101,2020-01-16 10:00 AM,$20K,5221 EDGEWOOD ROAD,COLLEGE PARK,20740,"PRINCE GEORGES COURTHOUSE AT FRONT OF THE DUVAL WING OF THE COURTHOUSE COMPLEX 14735 MAIN ST, UPPER MARLBORO, MD 20772",12/31/2019,5221 EDGEWOOD ROAD COLLEGE PARK,5221 Edgewood Rd,College Park,Prince George's County,Maryland,"5221 Edgewood Rd, College Park, MD 20740, USA",39.0158793,-76.9132344,ROOFTOP,ChIJd-IMTovDt4kRqbSsOjgMeEk,premise,20740,5221 EDGEWOOD ROAD COLLEGE PARK,1,OK,10.22872971
102,2020-01-16 10:00 AM,$20K,6012 LADD ROAD,SUITLAND,20746,"PRINCE GEORGES COURTHOUSE AT FRONT OF THE DUVAL WING OF THE COURTHOUSE COMPLEX 14735 MAIN ST, UPPER MARLBORO, MD 20772",12/31/2019,6012 LADD ROAD SUITLAND,6012 Ladd Rd,Camp Springs,Prince George's County,Maryland,"6012 Ladd Rd, Suitland, MD 20746, USA",38.8339639,-76.9032832,ROOFTOP,ChIJY1UHj6a-t4kRXqGn7PUJQnw,premise,20746,6012 LADD ROAD SUITLAND,1,OK,2.860652445
103,2020-01-16 10:00 AM,$20K,3310 BELLEVIEW AVE,LANDOVER,20785,"PRINCE GEORGES COURTHOUSE AT FRONT OF THE DUVAL WING OF THE COURTHOUSE COMPLEX 14735 MAIN ST, UPPER MARLBORO, MD 20772",12/31/2019,3310 BELLEVIEW AVE LANDOVER,3310 Belleview Ave,Cheverly,Prince George's County,Maryland,"3310 Belleview Ave, Cheverly, MD 20785, USA",38.9312988,-76.9151255,ROOFTOP,ChIJBURQqrXAt4kRh0i9-cRLexo,premise,20785,3310 BELLEVIEW AVE LANDOVER,1,OK,4.657238438
104,2020-01-16 10:00 AM,$20K,6911 HAWTHORNE STREET,LANDOVER,20785,"PRINCE GEORGES COURTHOUSE AT FRONT OF THE DUVAL WING OF THE COURTHOUSE COMPLEX 14735 MAIN ST, UPPER MARLBORO, MD 20772",12/31/2019,6911 HAWTHORNE STREET LANDOVER,6911 Hawthorne St,Hyattsville,Prince George's County,Maryland,"6911 Hawthorne St, Hyattsville, MD 20785, USA",38.924054,-76.885208,ROOFTOP,ChIJnyL7lJHAt4kRDx2pbUo0nKQ,street_address,20785,6911 HAWTHORNE STREET LANDOVER,1,OK,3.727720507
105,2020-01-16 10:00 AM,10%,8352 WADES WAY,JESSUP,20794,"HOWARD COURTHOUSE AT 8360 COURT AVE, ELLICOTT CITY, MD 21043",12/31/2019,8352 WADES WAY JESSUP,8352 Wades Way,Jessup,Howard County,Maryland,"8352 Wades Way, Jessup, MD 20794, USA",39.1670293,-76.7973501,ROOFTOP,ChIJj68SHOrgt4kRBO579CZeL-k,premise,20794,8352 WADES WAY JESSUP,1,OK,20.94809391
106,2020-01-16 10:45 AM,$2K,114 W. INCA STREET,ABERDEEN,21001,SALE ON PREMISES,01/01/2020,114 W. INCA STREET ABERDEEN,114 W Inca St,Aberdeen,Harford County,Maryland,"114 W Inca St, Aberdeen, MD 21001, USA",39.5156378,-76.1461003,RANGE_INTERPOLATED,EiYxMTQgVyBJbmNhIFN0LCBBYmVyZGVlbiwgTUQgMjEwMDEsIFVTQSIaEhgKFAoSCb-Pw5WnwceJEXSXemfsr0WNEHI,street_address,21001,114 W. INCA STREET ABERDEEN,2,OK,59.36023231
107,2020-01-16 11:30 AM,10%,4115 BELVIEU AVENUE,BALTIMORE,21215,"BALTIMORE CITY COURTHOUSE AT 100 N CALVERT ST, (COURTHOUSE WEST), BALTIMORE, MD 21202",12/31/2019,4115 BELVIEU AVENUE BALTIMORE,,Baltimore,,Maryland,"Baltimore Maryland Ave, Baltimore, MD 21201, USA",39.308546,-76.617848,GEOMETRIC_CENTER,ChIJfRvrAMAEyIkRIeSP8I_VPFE,"establishment,point_of_interest,transit_station",21201,4115 BELVIEU AVENUE BALTIMORE,1,OK,33.33391161
108,2020-01-16 11:30 AM,10%,424 NORTH CLINTON STREET,BALTIMORE,21224,"BALTIMORE CITY COURTHOUSE AT 100 N CALVERT ST, (COURTHOUSE WEST), BALTIMORE, MD 21202",12/31/2019,424 NORTH CLINTON STREET BALTIMORE,810 N Charles St,Baltimore,,Maryland,"810 N Charles St, Baltimore, MD 21201, USA",39.2993764,-76.6162081,ROOFTOP,ChIJ2Sium5cEyIkRXb1QxjRsvfQ,"establishment,parking,point_of_interest",21201,424 NORTH CLINTON STREET BALTIMORE,1,OK,32.79753778
109,2020-01-16 11:30 AM,10%,4202 GLENARM AVENUE,BALTIMORE,21206,"BALTIMORE CITY COURTHOUSE AT 100 N CALVERT ST, (COURTHOUSE WEST), BALTIMORE, MD 21202",12/31/2019,4202 GLENARM AVENUE BALTIMORE,501 E Pratt St,Baltimore,,Maryland,"501 E Pratt St, Baltimore, MD 21202, USA",39.2853948,-76.6083877,ROOFTOP,ChIJXVZn5GIDyIkRjn58fGGo8Mc,"aquarium,establishment,museum,point_of_interest,tourist_attraction",21202,4202 GLENARM AVENUE BALTIMORE,1,OK,32.11449585
110,2020-01-16 11:30 AM,10%,1823 EAST 33RD STREET,BALTIMORE,21218,"BALTIMORE CITY COURTHOUSE AT 100 N CALVERT ST, (COURTHOUSE WEST), BALTIMORE, MD 21202",12/31/2019,1823 EAST 33RD STREET BALTIMORE,9 E 33rd St,Baltimore,,Maryland,"9 E 33rd St, Baltimore, MD 21218, USA",39.3278957,-76.6165309,ROOFTOP,ChIJA_mTPeAEyIkR-B5LSq4ZhX0,"establishment,point_of_interest",21218,1823 EAST 33RD STREET BALTIMORE,1,OK,34.58043204
111,2020-01-16 11:30 AM,10%,3629 CHESTERFIELD AVENUE,BALTIMORE,21213,"BALTIMORE CITY COURTHOUSE AT 100 N CALVERT ST, (COURTHOUSE WEST), BALTIMORE, MD 21202",12/31/2019,3629 CHESTERFIELD AVENUE BALTIMORE,501 E Pratt St,Baltimore,,Maryland,"501 E Pratt St, Baltimore, MD 21202, USA",39.2853948,-76.6083877,ROOFTOP,ChIJXVZn5GIDyIkRjn58fGGo8Mc,"aquarium,establishment,museum,point_of_interest,tourist_attraction",21202,3629 CHESTERFIELD AVENUE BALTIMORE,1,OK,32.11449585
112,2020-01-16 11:30 AM,10%,5201 CRAIG AVENUE,BALTIMORE,21212,"BALTIMORE CITY COURTHOUSE AT 100 N CALVERT ST, (COURTHOUSE WEST), BALTIMORE, MD 21202",12/31/2019,5201 CRAIG AVENUE BALTIMORE,501 E Pratt St,Baltimore,,Maryland,"501 E Pratt St, Baltimore, MD 21202, USA",39.2853948,-76.6083877,ROOFTOP,ChIJXVZn5GIDyIkRjn58fGGo8Mc,"aquarium,establishment,museum,point_of_interest,tourist_attraction",21202,5201 CRAIG AVENUE BALTIMORE,1,OK,32.11449585
113,2020-01-16 11:30 AM,10%,207 LONGWOOD ROAD,BALTIMORE,21210,"BALTIMORE CITY COURTHOUSE AT 100 N CALVERT ST, (COURTHOUSE WEST), BALTIMORE, MD 21202",12/31/2019,207 LONGWOOD ROAD BALTIMORE,207 Longwood Rd,Baltimore,,Maryland,"207 Longwood Rd, Baltimore, MD 21210, USA",39.3568695,-76.6398724,ROOFTOP,ChIJqTodXksFyIkR4aRaQRFRQEM,premise,21210,207 LONGWOOD ROAD BALTIMORE,1,OK,35.95522611
114,2020-01-16 11:30 AM,10%,3384 SAINT BENEDICT STREET,BALTIMORE,21229,"BALTIMORE CITY COURTHOUSE AT 100 N CALVERT ST, (COURTHOUSE WEST), BALTIMORE, MD 21202",12/31/2019,3384 SAINT BENEDICT STREET BALTIMORE,2612 Wilkens Ave,Baltimore,,Maryland,"2612 Wilkens Ave, Baltimore, MD 21223, USA",39.2792771,-76.6566126,ROOFTOP,ChIJy9qFv7scyIkRos7btPwkKKQ,"church,establishment,place_of_worship,point_of_interest",21223,3384 SAINT BENEDICT STREET BALTIMORE,1,OK,30.64583474
115,2020-01-16 1:00 P.M,$23K,26640 LAUREL GROVE CT.,MECHANICSVILLE,20659,"ST MARYS COURTHOUSE AT 41605 COURTHOUSE DRIVE, LEONARDTOWN, MD 20650",01/01/2020,26640 LAUREL GROVE CT. MECHANICSVILLE,26640 Laurel Grove Ct,Mechanicsville,St. Mary's County,Maryland,"26640 Laurel Grove Ct, Mechanicsville, MD 20659, USA",38.3997416,-76.6722388,ROOFTOP,ChIJ5QMxwiRwt4kRlNyOT_GZugE,street_address,20659,26640 LAUREL GROVE CT. MECHANICSVILLE,2,OK,34.36315948
116,2020-01-16 1:30 PM,10%,13719 MANDA MILL LANE,PHOENIX,21131,"BALTIMORE COURTHOUSE AT 401 BOSLEY AVE (MAIN ENTRANCE FACING PATRIOT PLAZA), TOWSON, MD 21204",12/31/2019,13719 MANDA MILL LANE PHOENIX,13719 Manda Mill Ln,Phoenix,Baltimore County,Maryland,"13719 Manda Mill Ln, Phoenix, MD 21131, USA",39.5032798,-76.5863431,ROOFTOP,ChIJDw291OUMyIkRFAVKtu7URXo,premise,21131,13719 MANDA MILL LANE PHOENIX,2,OK,46.4343707
117,2020-01-16 1:30 PM,10%,4021 SANLEE ROAD,RANDALLSTOWN,21133,"BALTIMORE COURTHOUSE AT 401 BOSLEY AVE (MAIN ENTRANCE FACING PATRIOT PLAZA), TOWSON, MD 21204",12/31/2019,4021 SANLEE ROAD RANDALLSTOWN,3001 Connecticut Ave NW,Washington,,District of Columbia,"3001 Connecticut Ave NW, Washington, DC 20008, USA",38.9296156,-77.0497844,ROOFTOP,ChIJ3_DHHda3t4kR5BsMSyCsaJ4,"establishment,point_of_interest,tourist_attraction,zoo",20008,4021 SANLEE ROAD RANDALLSTOWN,1,OK,10.10191407
118,2020-01-16 1:30 PM,10%,5521 WILLYS AVENUE,BALTIMORE,21227,"BALTIMORE COURTHOUSE AT 401 BOSLEY AVE (MAIN ENTRANCE FACING PATRIOT PLAZA), TOWSON, MD 21204",12/31/2019,5521 WILLYS AVENUE BALTIMORE,2300 Rhode Island Ave NE,Washington,,District of Columbia,"2300 Rhode Island Ave NE, Washington, DC 20018, USA",38.9306749,-76.9733077,ROOFTOP,ChIJTWaSKJvHt4kRNAmN1Eg8nPo,"cafe,establishment,food,point_of_interest,store",20018,5521 WILLYS AVENUE BALTIMORE,1,OK,6.603103276
119,2020-01-16 1:30 PM,10%,3135 RHEIMS ROAD,BALTIMORE,21244,"BALTIMORE COURTHOUSE AT 401 BOSLEY AVE (MAIN ENTRANCE FACING PATRIOT PLAZA), TOWSON, MD 21204",12/31/2019,3135 RHEIMS ROAD BALTIMORE,3135 Rheims Rd,Milford Mill,Baltimore County,Maryland,"3135 Rheims Rd, Windsor Mill, MD 21244, USA",39.3385314,-76.7459389,ROOFTOP,ChIJOQj_sXAZyIkRnW3-A-nP810,premise,21244,3135 RHEIMS ROAD BALTIMORE,2,OK,33.11141713
120,2020-01-16 1:30 PM,10%,836 MILDRED AVENUE,BALTIMORE,21222,"BALTIMORE COURTHOUSE AT 401 BOSLEY AVE (MAIN ENTRANCE FACING PATRIOT PLAZA), TOWSON, MD 21204",12/31/2019,836 MILDRED AVENUE BALTIMORE,836 Mildred Ave,Dundalk,Baltimore County,Maryland,"836 Mildred Ave, Dundalk, MD 21222, USA",39.282138,-76.507013,ROOFTOP,ChIJh6pDwtYGyIkR6QgOWChb4vg,street_address,21222,836 MILDRED AVENUE BALTIMORE,2,OK,34.71799726
121,2020-01-16 5:00 PM,10%,204 BRUCE COURT,ELKTON,21921,"CECIL COURTHOUSE AT 129 E. MAIN ST, ELKTON, MD 21921",12/27/2019,204 BRUCE COURT ELKTON,204 Bruce Ct,Elkton,Cecil County,Maryland,"204 Bruce Ct, Elkton, MD 21921, USA",39.610773,-75.800972,ROOFTOP,ChIJKQfPWLGox4kRsmGo4BxHtQA,street_address,21921,204 BRUCE COURT ELKTON,2,OK,77.06203604
122,2020-01-17 9:30 AM,10%,6422 SUDLERSVILLE ROAD,MARYDEL,21649,"QUEEN ANNES COURTHOUSE AT 200 N. COMMERCE STREET, CENTREVILLE, MD 21617",01/01/2020,6422 SUDLERSVILLE ROAD MARYDEL,6422 Sudlersville Rd,Marydel,Queen Anne's County,Maryland,"6422 Sudlersville Rd, Marydel, MD 21649, USA",39.194973,-75.783536,ROOFTOP,ChIJ--TEh92Dx4kRiV-bY_TWUo0,street_address,21649,6422 SUDLERSVILLE ROAD MARYDEL,2,OK,62.8766654
123,2020-01-17 9:30 AM,10%,110 AGNES STREET,CHURCH HILL,21623,"QUEEN ANNES COURTHOUSE AT 200 N. COMMERCE STREET, CENTREVILLE, MD 21617",01/01/2020,110 AGNES STREET CHURCH HILL,209 Agnes St,Church Hill,Queen Anne's County,Maryland,"209 Agnes St, Church Hill, MD 21623, USA",39.1384906,-75.9824941,ROOFTOP,ChIJQyd8IPuJx4kRKcx8W0hd9Bo,"church,establishment,place_of_worship,point_of_interest",21623,110 AGNES STREET CHURCH HILL,1,OK,51.5272117
124,2020-01-17 9:30 AM,10%,107 TERRAPIN LANE,STEVENSVILLE,21666,"QUEEN ANNES COURTHOUSE AT 200 N. COMMERCE STREET, CENTREVILLE, MD 21617",01/01/2020,107 TERRAPIN LANE STEVENSVILLE,107 Terrapin Ln,Stevensville,Queen Anne's County,Maryland,"107 Terrapin Ln, Stevensville, MD 21666, USA",38.8653637,-76.3379726,ROOFTOP,ChIJmy7hIZUYuIkRi9AThQjUui0,premise,21666,107 TERRAPIN LANE STEVENSVILLE,2,OK,29.05425846
125,2020-01-17 10:30 AM,10%,5150 FRAZIER NECK ROAD,PRESTON,21655,"CAROLINE COURTHOUSE AT 109 MARKET ST, DENTON, MD 21629",01/01/2020,5150 FRAZIER NECK ROAD PRESTON,5150 Frazier Neck Rd,Preston,Caroline County,Maryland,"5150 Frazier Neck Rd, Preston, MD 21655, USA",38.750563,-75.977644,ROOFTOP,ChIJg3pEmsVDuIkRxmHpBwDah1Q,street_address,21655,5150 FRAZIER NECK ROAD PRESTON,2,OK,49.17722212
126,2020-01-17 2:30 PM,10%,106 JUSTICE AVENUE,SALISBURY,21804,"WICOMICO COURTHOUSE AT 101 NORTH DIVISION STREET, SALISBURY, MARYLAND 21801",01/01/2020,106 JUSTICE AVENUE SALISBURY,3002 Old Ocean City Rd,Salisbury,Wicomico County,Maryland,"3002 Old Ocean City Rd, Salisbury, MD 21804, USA",38.373026,-75.545333,ROOFTOP,ChIJNfwI9yMDuYkRWB7LRph6w5I,"establishment,health,point_of_interest",21804,106 JUSTICE AVENUE SALISBURY,1,OK,79.72570053
127,2020-01-17 2:30 PM,10%,8180 BRAGGS LANE,HEBRON,21830,"WICOMICO COURTHOUSE AT 101 NORTH DIVISION STREET, SALISBURY, MARYLAND 21801",01/01/2020,8180 BRAGGS LANE HEBRON,8180 Braggs Ln,Hebron,Wicomico County,Maryland,"8180 Braggs Ln, Hebron, MD 21830, USA",38.418783,-75.723896,ROOFTOP,ChIJcyxUtpmquYkRtEr8JoYAyhI,street_address,21830,8180 BRAGGS LANE HEBRON,2,OK,69.66003233
128,2020-01-21 10:00 AM,$20K,916 SEMINOLE ROAD,FREDERICK,21701,FREDERICK COURTHOUSE AT,01/03/2020,916 SEMINOLE ROAD FREDERICK,,Washington,,District of Columbia,"Frederick Douglass Memorial Bridge, Washington, DC 20020, USA",38.8686674,-77.0053545,GEOMETRIC_CENTER,ChIJAYU4Zdm5t4kRm1we6KavQGI,"establishment,point_of_interest,tourist_attraction",20020,916 SEMINOLE ROAD FREDERICK,1,OK,6.850991628
129,2020-01-21 10:00 AM,$22.3 K,1327 WILSON ROAD,WALDORF,20602,"CHARLES COURTHOUSE AT 200 CHARLES STREET ( IN THE BREEZEWAY BETWEEN CIRCUIT AND DISTRICT COURTS ), LA PLATA, MD 20646",01/06/2020,1327 WILSON ROAD WALDORF,1327 Wilson Rd,Waldorf,Charles County,Maryland,"1327 Wilson Rd, Waldorf, MD 20602, USA",38.5973911,-76.9305683,ROOFTOP,ChIJhS7PaEWnt4kR5chY32Bc03I,premise,20602,1327 WILSON ROAD WALDORF,1,OK,19.07407953
130,2020-01-21 11:00 AM,10%,3221 8TH STREET SE 8,WASHINGTON,20032,"WASHINGTON D.C. OFFICE AT 5335 WISCONSIN AVENUE-NW, STE 440, WASHINGTON, DC 20015",12/27/2019,3221 8TH STREET SE 8 WASHINGTON,3221 8th St SE,Washington,,District of Columbia,"3221 8th St SE, Washington, DC 20032, USA",38.8434093,-76.9954229,ROOFTOP,ChIJZ4Tm5Pa5t4kRpXhwKfhVzV4,street_address,20032,3221 8TH STREET SE 8 WASHINGTON,1,OK,6.586202376
131,2020-01-21 11:00 AM,$11 K,5349 E STREET SE,WASHINGTON,20019,"WASHINGTON D.C. OFFICE AT 5335 WISCONSIN AVENUE-NW, STE 440, WASHINGTON, DC 20015",12/26/2019,5349 E STREET SE WASHINGTON,5349 E St SE,Washington,,District of Columbia,"5349 E St SE, Washington, DC 20019, USA",38.8815178,-76.9249519,ROOFTOP,ChIJqwF2mtG4t4kR9gnCEQCVfVI,premise,20019,5349 E STREET SE WASHINGTON,1,OK,2.638929984
132,2020-01-21 11:00 AM,$12 K,3341 D STREET SE,WASHINGTON,20019,"WASHINGTON D.C. OFFICE AT 5335 WISCONSIN AVENUE-NW, STE 440, WASHINGTON, DC 20015",12/26/2019,3341 D STREET SE WASHINGTON,3341 D St SE,Washington,,District of Columbia,"3341 D St SE, Washington, DC 20019, USA",38.8842283,-76.9581624,ROOFTOP,ChIJm34y0fu4t4kRsJb2lJHQB20,premise,20019,3341 D STREET SE WASHINGTON,1,OK,4.415522658
133,2020-01-21 11:00 AM,$15 K,"1307 KENYON STREET, NW",WASHINGTON,20010,"WASHINGTON D.C. OFFICE AT 5335 WISCONSIN AVENUE-NW, STE 440, WASHINGTON, DC 20015",12/26/2019,"1307 KENYON STREET, NW WASHINGTON",1307 Kenyon St NW,Washington,,District of Columbia,"1307 Kenyon St NW, Washington, DC 20010, USA",38.929887,-77.030202,ROOFTOP,ChIJN4fR4B7It4kR2L6UP_HJCeU,street_address,20010,"1307 KENYON STREET, NW WASHINGTON",1,OK,9.157526216
134,2020-01-21 11:30 AM,$20K,1310 SALEM AVENUE,HAGERSTOWN,21740,"WASHINGTON COURTHOUSE AT 95 W. WASHINGTON STREET, HAGERSTOWN, MD 21740",01/03/2020,1310 SALEM AVENUE HAGERSTOWN,1323 Salem Ave,Hagerstown,Washington County,Maryland,"1323 Salem Ave, Hagerstown, MD 21740, USA",39.6563438,-77.7371607,ROOFTOP,ChIJ-VqoS62SyYkRmKKhMdr97ZY,"establishment,point_of_interest,primary_school,school",21740,1310 SALEM AVENUE HAGERSTOWN,2,OK,71.14162834
135,2020-01-21 11:30 AM,$20K,18218 ROYCROFT DRIVE,HAGERSTOWN,21740,"WASHINGTON COURTHOUSE AT 95 W. WASHINGTON STREET, HAGERSTOWN, MD 21740",01/03/2020,18218 ROYCROFT DRIVE HAGERSTOWN,200 Northern Ave,Hagerstown,Washington County,Maryland,"200 Northern Ave, Hagerstown, MD 21742, USA",39.662777,-77.7048312,ROOFTOP,ChIJZay3tRaTyYkRyCZ_7vnMZwQ,"establishment,health,point_of_interest",21742,18218 ROYCROFT DRIVE HAGERSTOWN,1,OK,70.38075488
136,2020-01-21 11:30 AM,$20K,16113 WISHARD ROAD,HAGERSTOWN,21740,"WASHINGTON COURTHOUSE AT 95 W. WASHINGTON STREET, HAGERSTOWN, MD 21740",01/03/2020,16113 WISHARD ROAD HAGERSTOWN,16113 Wishard Rd,Hagerstown,Washington County,Maryland,"16113 Wishard Rd, Hagerstown, MD 21740, USA",39.718178,-77.811524,ROOFTOP,ChIJ5xo15EKMyYkRAZNpw-KnPxM,street_address,21740,16113 WISHARD ROAD HAGERSTOWN,2,OK,76.95869472
137,2020-01-21 11:30 AM,$20K,43 S MAIN STREET,KEEDYSVILLE,21756,"WASHINGTON COURTHOUSE AT 95 W. WASHINGTON STREET, HAGERSTOWN, MD 21740",01/03/2020,43 S MAIN STREET KEEDYSVILLE,19 S Main St,Keedysville,Washington County,Maryland,"19 S Main St, Keedysville, MD 21756, USA",39.486589,-77.700411,ROOFTOP,ChIJgdG7mIDlyYkRrXGsIJlqVLk,"establishment,library,local_government_office,point_of_interest",21756,43 S MAIN STREET KEEDYSVILLE,2,OK,61.25953578
138,2020-01-22 10:00 AM,$43.0K,611 PAREV WAY,UPPER MARLBORO,20774,"PRINCE GEORGES COURTHOUSE AT FRONT OF THE DUVAL WING OF THE COURTHOUSE COMPLEX 14735 MAIN ST, UPPER MARLBORO, MD 20772",01/07/2020,611 PAREV WAY UPPER MARLBORO,611 Parev Way,Upper Marlboro,Prince George's County,Maryland,"611 Parev Way, Upper Marlboro, MD 20774, USA",38.8807339,-76.828474,ROOFTOP,ChIJGT0Lrt-_t4kRBfUOUUd98pk,street_address,20774,611 PAREV WAY UPPER MARLBORO,1,OK,2.759138861
139,2020-01-22 10:00 AM,$18.9K,1312 ASHEVILLE ROAD,DISTRICT HEIGHTS,20747,"PRINCE GEORGES COURTHOUSE AT FRONT OF THE DUVAL WING OF THE COURTHOUSE COMPLEX 14735 MAIN ST, UPPER MARLBORO, MD 20772",01/07/2020,1312 ASHEVILLE ROAD DISTRICT HEIGHTS,1312 Asheville Rd,District Heights,Prince George's County,Maryland,"1312 Asheville Rd, District Heights, MD 20747, USA",38.8707658,-76.8594614,ROOFTOP,ChIJE8_YHbK_t4kREcVso3DIWAs,premise,20747,1312 ASHEVILLE ROAD DISTRICT HEIGHTS,1,OK,0.9986150717
140,2020-01-22 10:00 AM,$27.2K,1404 EDGEWICK AVE,CAPITOL HEIGHTS,20743,"PRINCE GEORGES COURTHOUSE AT FRONT OF THE DUVAL WING OF THE COURTHOUSE COMPLEX 14735 MAIN ST, UPPER MARLBORO, MD 20772",01/07/2020,1404 EDGEWICK AVE CAPITOL HEIGHTS,1404 Edgewick Ave,Capitol Heights,Prince George's County,Maryland,"1404 Edgewick Ave, Capitol Heights, MD 20743, USA",38.871191,-76.9295328,ROOFTOP,ChIJxy8xfii5t4kR6B0UMufYjPs,premise,20743,1404 EDGEWICK AVE CAPITOL HEIGHTS,1,OK,2.771660417
141,2020-01-22 10:00 AM,$33.6K,12100 FORGE LANE,BOWIE,20715,"PRINCE GEORGES COURTHOUSE AT FRONT OF THE DUVAL WING OF THE COURTHOUSE COMPLEX 14735 MAIN ST, UPPER MARLBORO, MD 20772",01/07/2020,12100 FORGE LANE BOWIE,12100 Forge Ln,Bowie,Prince George's County,Maryland,"12100 Forge Ln, Bowie, MD 20715, USA",38.9658713,-76.7516648,ROOFTOP,ChIJgZVor-jrt4kR5nYjAqmghGo,premise,20715,12100 FORGE LANE BOWIE,1,OK,9.468770297
142,2020-01-22 10:00 AM,$26.8K,6819 99TH AVENUE,LANHAM,20706,"PRINCE GEORGES COURTHOUSE AT FRONT OF THE DUVAL WING OF THE COURTHOUSE COMPLEX 14735 MAIN ST, UPPER MARLBORO, MD 20772",01/07/2020,6819 99TH AVENUE LANHAM,6819 99th Ave,Lanham,Prince George's County,Maryland,"6819 99th Ave, Lanham, MD 20706, USA",38.982028,-76.842568,ROOFTOP,ChIJ6dOBrfbBt4kRH2HCeye-67k,premise,20706,6819 99TH AVENUE LANHAM,1,OK,7.945138721
143,2020-01-22 10:00 AM,$34.3K,5813 MAPLE TERRACE,LAUREL,20707,"PRINCE GEORGES COURTHOUSE AT FRONT OF THE DUVAL WING OF THE COURTHOUSE COMPLEX 14735 MAIN ST, UPPER MARLBORO, MD 20772",01/07/2020,5813 MAPLE TERRACE LAUREL,5813 Maple Terrace,Laurel,Prince George's County,Maryland,"5813 Maple Terrace, Laurel, MD 20707, USA",39.1035896,-76.9050394,ROOFTOP,ChIJH5uD7ZDct4kRXf8vpKY9cVc,premise,20707,5813 MAPLE TERRACE LAUREL,1,OK,16.17756441
144,2020-01-22 11:45 AM,$5 K,892 WEST LOMBARD STREET,BALTIMORE,21201,"BALTIMORE CITY COURTHOUSE AT 100 N CALVERT ST, (COURTHOUSE WEST), BALTIMORE, MD 21202",01/07/2020,892 WEST LOMBARD STREET BALTIMORE,300 W Lombard St,Baltimore,,Maryland,"300 W Lombard St, Baltimore, MD 21201, USA",39.2876872,-76.6196009,ROOFTOP,ChIJOZpO7V8DyIkRmV7SEgmkeXM,"establishment,point_of_interest,real_estate_agency",21201,892 WEST LOMBARD STREET BALTIMORE,1,OK,31.99076239
145,2020-01-22 11:45 AM,$15.4K,3215 YOSEMITE AVENUE,BALTIMORE,21215,"BALTIMORE CITY COURTHOUSE AT 100 N CALVERT ST, (COURTHOUSE WEST), BALTIMORE, MD 21202",01/07/2020,3215 YOSEMITE AVENUE BALTIMORE,2400 E Fort Ave,Baltimore,,Maryland,"Fort McHenry National Monument and Historic Shrine, 2400 E Fort Ave, Baltimore, MD 21230, USA",39.2633021,-76.5799058,ROOFTOP,ChIJz2yfIJgDyIkREhJ4NEghTeo,"establishment,park,point_of_interest,tourist_attraction,travel_agency",21230,3215 YOSEMITE AVENUE BALTIMORE,1,OK,31.5076479
146,2020-01-22 1:45 PM,$21.1K,308 WORTON ROAD,ESSEX,21221,"BALTIMORE COURTHOUSE AT 401 BOSLEY AVE (MAIN ENTRANCE FACING PATRIOT PLAZA), TOWSON, MD 21204",01/07/2020,308 WORTON ROAD ESSEX,308 Worton Rd,Essex,Baltimore County,Maryland,"308 Worton Rd, Essex, MD 21221, USA",39.3075024,-76.4296366,ROOFTOP,ChIJ3Ub0egr9x4kRaOFZ-epBR84,premise,21221,308 WORTON ROAD ESSEX,2,OK,38.60464842
147,2020-01-22 1:45 PM,$20.4K,22 OAKHAMPTON DRIVE,LUTHERVILLE,21093,"BALTIMORE COURTHOUSE AT 401 BOSLEY AVE (MAIN ENTRANCE FACING PATRIOT PLAZA), TOWSON, MD 21204",01/07/2020,22 OAKHAMPTON DRIVE LUTHERVILLE,501 E Pratt St,Baltimore,,Maryland,"501 E Pratt St, Baltimore, MD 21202, USA",39.2853948,-76.6083877,ROOFTOP,ChIJXVZn5GIDyIkRjn58fGGo8Mc,"aquarium,establishment,museum,point_of_interest,tourist_attraction",21202,22 OAKHAMPTON DRIVE LUTHERVILLE,1,OK,32.11449585
148,2020-01-23 10:00 AM,$20K,11540 COSCA PARK PLACE,CLINTON,20735,"PRINCE GEORGES COURTHOUSE AT FRONT OF THE DUVAL WING OF THE COURTHOUSE COMPLEX 14735 MAIN ST, UPPER MARLBORO, MD 20772",01/07/2020,11540 COSCA PARK PLACE CLINTON,11540 Cosca Park Pl,Clinton,Prince George's County,Maryland,"11540 Cosca Park Pl, Clinton, MD 20735, USA",38.732548,-76.9105778,ROOFTOP,ChIJC2IRdlyjt4kR5ETMUrr4sVQ,premise,20735,11540 COSCA PARK PLACE CLINTON,1,OK,9.68419327
149,2020-01-23 10:00 AM,$20K,"16 RIDGE ROAD, UNIT 2046",GREENBELT,20770,"PRINCE GEORGES COURTHOUSE AT FRONT OF THE DUVAL WING OF THE COURTHOUSE COMPLEX 14735 MAIN ST, UPPER MARLBORO, MD 20772",01/08/2020,"16 RIDGE ROAD, UNIT 2046 GREENBELT",16 Ridge Rd,Greenbelt,Prince George's County,Maryland,"16 Ridge Rd #2046, Greenbelt, MD 20770, USA",38.9984836,-76.8782891,ROOFTOP,EisyMDQ2LCAxNiBSaWRnZSBSZCwgR3JlZW5iZWx0LCBNRCAyMDc3MCwgVVNBIiAaHgoWChQKEglNLWp50cO3iRG-LT4QLiPaaxIEMjA0Ng,subpremise,20770,"16 RIDGE ROAD, UNIT 2046 GREENBELT",1,OK,8.850228404
150,2020-01-23 10:00 AM,$34.1K,17659 HORIZON PLACE,ROCKVILLE,20855,"MONTGOMERY COURTHOUSE AT 50 MARYLAND AVENUE, ROCKVILLE, MD 20850",01/08/2020,17659 HORIZON PLACE ROCKVILLE,17659 Horizon Pl,Rockville,Montgomery County,Maryland,"17659 Horizon Pl, Rockville, MD 20855, USA",39.1459193,-77.1428475,ROOFTOP,ChIJD6kTfavTt4kRL3QhEY9vn5Q,street_address,20855,17659 HORIZON PLACE ROCKVILLE,1,OK,23.76076347
151,2020-01-23 10:00 AM,$50.0K,3715 KENWAY STREET,SILVER SPRING,20906,"MONTGOMERY COURTHOUSE AT 50 MARYLAND AVENUE, ROCKVILLE, MD 20850",01/08/2020,3715 KENWAY STREET SILVER SPRING,3715 Kenway St,Silver Spring,Montgomery County,Maryland,"3715 Kenway St, Silver Spring, MD 20906, USA",39.069852,-77.0740971,ROOFTOP,ChIJja0dVEHOt4kRCxLrS9H3Zrg,premise,20906,3715 KENWAY STREET SILVER SPRING,1,OK,17.34554055
152,2020-01-23 10:00 AM,$22.0K,4713 TALLAHASSEE AVENUE,ROCKVILLE,20853,"MONTGOMERY COURTHOUSE AT 50 MARYLAND AVENUE, ROCKVILLE, MD 20850",01/08/2020,4713 TALLAHASSEE AVENUE ROCKVILLE,4713 Tallahassee Ave,Rockville,Montgomery County,Maryland,"4713 Tallahassee Ave, Rockville, MD 20853, USA",39.0694275,-77.0970729,ROOFTOP,ChIJrcDWK3fOt4kR5BYjHjeN-BU,premise,20853,4713 TALLAHASSEE AVENUE ROCKVILLE,1,OK,18.09929102
153,2020-01-23 10:00 AM,$29.8K,12821 MONEYWORTH WAY,CLARKSBURG,20871,"MONTGOMERY COURTHOUSE AT 50 MARYLAND AVENUE, ROCKVILLE, MD 20850",01/08/2020,12821 MONEYWORTH WAY CLARKSBURG,12821 Moneyworth Way,Clarksburg,Montgomery County,Maryland,"12821 Moneyworth Way, Clarksburg, MD 20871, USA",39.244976,-77.2684534,ROOFTOP,ChIJ1bE1pjYqtokRaHCE_BahaNg,premise,20871,12821 MONEYWORTH WAY CLARKSBURG,2,OK,33.29611377
154,2020-01-23 10:00 AM,$27.7K,26619 HANEY AVENUE,DAMASCUS,20872,"MONTGOMERY COURTHOUSE AT 50 MARYLAND AVENUE, ROCKVILLE, MD 20850",01/08/2020,26619 HANEY AVENUE DAMASCUS,26619 Haney Ave,Damascus,Montgomery County,Maryland,"26619 Haney Ave, Damascus, MD 20872, USA",39.293238,-77.227741,ROOFTOP,ChIJXSmfl23VyYkR0Nm4lEAWKqw,street_address,20872,26619 HANEY AVENUE DAMASCUS,2,OK,34.71853049
155,2020-01-23 10:00 AM,$50.0K,9816 GLENOLDEN DRIVE,POTOMAC,20854,"MONTGOMERY COURTHOUSE AT 50 MARYLAND AVENUE, ROCKVILLE, MD 20850",01/08/2020,9816 GLENOLDEN DRIVE POTOMAC,9816 Glenolden Dr,Rockville,Montgomery County,Maryland,"9816 Glenolden Dr, Rockville, MD 20854, USA",39.0199489,-77.2022959,ROOFTOP,ChIJS9a99640tokRTweg3c5-CZU,premise,20854,9816 GLENOLDEN DRIVE POTOMAC,1,OK,20.25915976
156,2020-01-23 10:00 AM,$11.9K,11442 HEREFORDSHIRE WAY,GERMANTOWN,20876,"MONTGOMERY COURTHOUSE AT 50 MARYLAND AVENUE, ROCKVILLE, MD 20850",01/08/2020,11442 HEREFORDSHIRE WAY GERMANTOWN,11442 Herefordshire Way,Germantown,Montgomery County,Maryland,"11442 Herefordshire Way, Germantown, MD 20876, USA",39.184926,-77.2390659,ROOFTOP,ChIJuZ5Nc4gstokRipJrqChwwCw,street_address,20876,11442 HEREFORDSHIRE WAY GERMANTOWN,1,OK,29.11755224
157,2020-01-23 11:00 AM,$15K,7963 RIGGS ROAD UNIT 3,HYATTSVILLE,20783,"PRINCE GEORGES COURTHOUSE AT FRONT OF THE DUVAL WING OF THE COURTHOUSE COMPLEX 14735 MAIN ST, UPPER MARLBORO, MD 20772",01/06/2020,7963 RIGGS ROAD UNIT 3 HYATTSVILLE,7963 Riggs Rd,Hyattsville,Prince George's County,Maryland,"7963 Riggs Rd #3, Hyattsville, MD 20783, USA",38.9865168,-76.9758159,RANGE_INTERPOLATED,EiwzLCA3OTYzIFJpZ2dzIFJkLCBIeWF0dHN2aWxsZSwgTUQgMjA3ODMsIFVTQSIiGiAKGxIZChQKEgmptn-paMa3iRGNetnoF4DSORCbPhIBMw,subpremise,20783,7963 RIGGS ROAD UNIT 3 HYATTSVILLE,1,OK,9.59199321
158,2020-01-23 1:45 PM,$19.5K,6209 PAUL RUDY ROAD,MIDDLETOWN,21769,"FREDERICK COURTHOUSE AT 100 W. PATRICK ST, FREDERICK, MD 21701",01/08/2020,6209 PAUL RUDY ROAD MIDDLETOWN,6209 Paul Rudy Rd,Middletown,Frederick County,Maryland,"6209 Paul Rudy Rd, Middletown, MD 21769, USA",39.4026298,-77.5551577,ROOFTOP,ChIJQ-sDFvrdyYkRv7X6FBvOfmU,premise,21769,6209 PAUL RUDY ROAD MIDDLETOWN,2,OK,51.66429997
159,2020-01-23 3:00 PM,$5.0K,1125 FAIRVIEW ROAD,HAGERSTOWN,21742,"WASHINGTON COURTHOUSE AT 95 W. WASHINGTON STREET, HAGERSTOWN, MD 21740",01/07/2020,1125 FAIRVIEW ROAD HAGERSTOWN,17035 Fairview Rd,Hagerstown,Washington County,Maryland,"17035 Fairview Rd, Hagerstown, MD 21740, USA",39.6997309,-77.777077,ROOFTOP,ChIJYe6W-giNyYkR2LpzoZYYc_c,"convenience_store,establishment,food,gas_station,point_of_interest,store",21740,1125 FAIRVIEW ROAD HAGERSTOWN,1,OK,74.80027588
160,2020-01-23 3:00 PM,$50.0K,9938 STEPHANIE LANE,HAGERSTOWN,21740,"WASHINGTON COURTHOUSE AT 95 W. WASHINGTON STREET, HAGERSTOWN, MD 21740",01/07/2020,9938 STEPHANIE LANE HAGERSTOWN,9938 Stephanie Ln,Hagerstown,Washington County,Maryland,"9938 Stephanie Ln, Hagerstown, MD 21740, USA",39.5894209,-77.7355735,ROOFTOP,ChIJx2fSsPHtyYkRQSyqtHU0h20,premise,21740,9938 STEPHANIE LANE HAGERSTOWN,2,OK,67.63537676
161,2020-01-27 11:15 AM,$25.4 K,227 RACHEL CIRCLE,FOREST HILL,21050,"HARFORD COURTHOUSE AT 20 W COURTLAND ST, BEL AIR, MD 21014",01/08/2020,227 RACHEL CIRCLE FOREST HILL,227 Rachel Cir,Forest Hill,Harford County,Maryland,"227 Rachel Cir, Forest Hill, MD 21050, USA",39.5746111,-76.3774285,ROOFTOP,ChIJmVnTkbrex4kR6yEXd-4NT0U,premise,21050,227 RACHEL CIRCLE FOREST HILL,2,OK,55.54655751
162,2020-01-27 11:15 AM,$46.8 K,1340 QUAKER CHURCH ROAD,STREET,21154,"HARFORD COURTHOUSE AT 20 W COURTLAND ST, BEL AIR, MD 21014",01/08/2020,1340 QUAKER CHURCH ROAD STREET,1340 Quaker Church Rd,Street,Harford County,Maryland,"1340 Quaker Church Rd, Street, MD 21154, USA",39.662967,-76.297496,ROOFTOP,ChIJ2dl-nHPQx4kRgHiM8T2dJOY,street_address,21154,1340 QUAKER CHURCH ROAD STREET,2,OK,62.95333826
163,2020-01-27 11:15 AM,$16.9 K,1012 LAKEFRONT DRIVE,EDGEWOOD,21040,"HARFORD COURTHOUSE AT 20 W COURTLAND ST, BEL AIR, MD 21014",01/08/2020,1012 LAKEFRONT DRIVE EDGEWOOD,501 E Pratt St,Baltimore,,Maryland,"501 E Pratt St, Baltimore, MD 21202, USA",39.2853948,-76.6083877,ROOFTOP,ChIJXVZn5GIDyIkRjn58fGGo8Mc,"aquarium,establishment,museum,point_of_interest,tourist_attraction",21202,1012 LAKEFRONT DRIVE EDGEWOOD,1,OK,32.11449585
164,2020-01-27 11:30 AM,$20K,500 ACADEMY STREET,HURLOCK,21643,"DORCHESTER COURTHOUSE AT 206 HIGH ST. CAMBRIDGE, MD 21613",01/08/2020,500 ACADEMY STREET HURLOCK,500 Academy St,Hurlock,Dorchester County,Maryland,"500 Academy St, Hurlock, MD 21643, USA",38.6376383,-75.8676699,ROOFTOP,ChIJid9XVJBauIkRH2d2cO-3tEY,premise,21643,500 ACADEMY STREET HURLOCK,2,OK,56.76477248
165,2020-01-27 1:15 PM,$14.3 K,15 THYME STREET,ELKTON,21921,"CECIL COURTHOUSE AT 129 E. MAIN ST, ELKTON, MD 21921",01/08/2020,15 THYME STREET ELKTON,125 E High St,Elkton,Cecil County,Maryland,"125 E High St, Elkton, MD 21921, USA",39.6099041,-75.8290617,ROOFTOP,ChIJdyd4S12vx4kRmN9rOsju2_k,"establishment,health,point_of_interest",21921,15 THYME STREET ELKTON,2,OK,75.90427092
166,2020-01-27 2:15 PM,$20K,12133 CAMPUS PLACE,PRINCESS ANNE,21853,"SOMERSET COURTHOUSE AT 30512 PRINCE WILLIAM ST, PRINCESS ANNE, MD 21853",01/08/2020,12133 CAMPUS PLACE PRINCESS ANNE,12133 N Campus Pl,Princess Anne,Somerset County,Maryland,"12133 N Campus Pl, Princess Anne, MD 21853, USA",38.214697,-75.693293,ROOFTOP,ChIJ0dJRt_IJuYkR3QSzcv8WKSc,"establishment,general_contractor,point_of_interest",21853,12133 CAMPUS PLACE PRINCESS ANNE,2,OK,78.43055512
167,2020-01-27 2:15 PM,$20K,27270 CRISFIELD MARION ROAD,CRISFIELD,21817,"SOMERSET COURTHOUSE AT 30512 PRINCE WILLIAM ST, PRINCESS ANNE, MD 21853",01/08/2020,27270 CRISFIELD MARION ROAD CRISFIELD,27331 Crisfield Marion Rd,Crisfield,Somerset County,Maryland,"27331 Crisfield Marion Rd, Crisfield, MD 21817, USA",38.023833,-75.806357,ROOFTOP,ChIJD5dvYtuauYkR5chiGPkHKxQ,"church,establishment,place_of_worship,point_of_interest",21817,27270 CRISFIELD MARION ROAD CRISFIELD,1,OK,82.36487704
168,2020-01-30 11:30 AM,10%,3603 EAST NORTHERN PARKWAY,BALTIMORE,21206,"BALTIMORE CITY COURTHOUSE AT 100 N CALVERT ST, (COURTHOUSE WEST), BALTIMORE, MD 21202",01/14/2020,3603 EAST NORTHERN PARKWAY BALTIMORE,1900 E Northern Pkwy,Baltimore,,Maryland,"1900 E Northern Pkwy, Baltimore, MD 21239, USA",39.3676441,-76.5810621,ROOFTOP,ChIJsdOX92IPyIkRHc_pogjvuz8,"establishment,health,point_of_interest",21239,3603 EAST NORTHERN PARKWAY BALTIMORE,1,OK,37.86528473
169,2020-01-30 1:30 PM,10%,817 WEST OADONIA ROAD,COCKEYSVILLE,21030,"BALTIMORE COURTHOUSE AT 401 BOSLEY AVE (MAIN ENTRANCE FACING PATRIOT PLAZA), TOWSON, MD 21204",01/14/2020,817 WEST OADONIA ROAD COCKEYSVILLE,2300 York Rd,Lutherville-Timonium,Baltimore County,Maryland,"2300 York Rd, Lutherville-Timonium, MD 21093, USA",39.449137,-76.6312532,ROOFTOP,ChIJlX9NagYOyIkRSoWmNL0EmQs,"establishment,health,point_of_interest",21093,817 WEST OADONIA ROAD COCKEYSVILLE,2,OK,42.11606897
170,2020-02-04 11:00 AM,$11 K,"3435 SUMMIT COURT, NE",WASHINGTON,20018,"WASHINGTON D.C. OFFICE AT 5335 WISCONSIN AVENUE-NW, STE 440, WASHINGTON, DC 20015",01/09/2019,"3435 SUMMIT COURT, NE WASHINGTON",3435 Summit Ct NE,Washington,,District of Columbia,"3435 Summit Ct NE, Washington, DC 20018, USA",38.9284085,-76.9586006,ROOFTOP,ChIJg9RFVXfHt4kRNlRVZruJTZI,street_address,20018,"3435 SUMMIT COURT, NE WASHINGTON",1,OK,5.902805083
171,2020/01/27 11:00 AM,10%,11509 BRIGIT COURT,BOWIE,20720,"PRINCE GEORGES COURTHOUSE AT FRONT OF THE DUVAL WING OF THE COURTHOUSE COMPLEX 14735 MAIN ST, UPPER MARLBORO, MD 20772",01/08/2020,11509 BRIGIT COURT BOWIE,11509 Brigit Ct,Bowie,Prince George's County,Maryland,"11509 Brigit Ct, Bowie, MD 20720, USA",39.0052408,-76.8044705,ROOFTOP,ChIJuTBNXMDpt4kRDjipFisx3xw,premise,20720,11509 BRIGIT COURT BOWIE,1,OK,10.12087436